%time,field.header.seq,field.header.stamp,field.header.frame_id,field.orientation.x,field.orientation.y,field.orientation.z,field.orientation.w,field.angular_velocity.x,field.angular_velocity.y,field.angular_velocity.z,field.linear_acceleration.x,field.linear_acceleration.y,field.linear_acceleration.z
1573333107483652303,42480,1573333107444136983,imu,0.0,0.0,0.0,0.0,0.00123045712266,0.00166975649538,0.00210818320348,0.188842508078,-0.0509139021778,9.7136662155
1573333107499793110,42481,1573333107460136983,imu,0.0,0.0,0.0,0.0,0.00369119683504,-0.00175772108968,0.00292796435315,0.189725408115,-0.0492462021065,9.74397911679
1573333107515783262,42482,1573333107476136983,imu,0.0,0.0,0.0,0.0,-0.000175754655676,0.00123045712266,-0.00169820536219,0.187665308027,-0.0441450018883,9.72357431592
1573333107531759147,42483,1573333107492136983,imu,0.0,0.0,0.0,0.0,0.00158196643401,-0.000878773278379,0.000175754655676,0.190706408157,-0.0497367021275,9.69777401482
1573333107547898138,42484,1573333107508136983,imu,0.0,0.0,0.0,0.0,0.000527263967027,-0.00202126580673,0.001815316955,0.190510208149,-0.0513063021946,9.72602681602
1573333107563737844,42485,1573333107524136983,imu,0.0,0.0,0.0,0.0,0.00131824718403,0.000175754655676,0.00228376332623,0.191981708212,-0.0430659018421,9.72377051593
1573333107579912180,42486,1573333107540136983,imu,0.0,0.0,0.0,0.0,0.00254870430669,-0.0048336893634,-0.00257662957472,0.191981708212,-0.0488538020897,9.71719781565
1573333107595898208,42487,1573333107556136983,imu,0.0,0.0,0.0,0.0,0.000703018622703,-0.00202126580673,-5.8643062867e-05,0.187469108019,-0.0441450018883,9.70993841534
1573333107611804416,42488,1573333107572136983,imu,0.0,0.0,0.0,0.0,0.000351509311352,-0.00096673787268,0.00257662957472,0.188450108061,-0.0488538020897,9.72377051593
1573333107627783297,42489,1573333107588136983,imu,0.0,0.0,0.0,0.0,-0.000615228561328,0.00202126580673,-0.000527089434102,0.193453208275,-0.0488538020897,9.71857121571
1573333107643837061,42490,1573333107604136983,imu,0.0,0.0,0.0,0.0,0.00237294965101,-0.00184551115106,-0.000702669556853,0.190117808132,-0.0474804020309,9.71553011558
1573333107659800943,42491,1573333107620136983,imu,0.0,0.0,0.0,0.0,-0.000175754655676,0.000175754655676,0.000702669556853,0.188940608082,-0.0451260019302,9.72092561581
1573333107675799404,42492,1573333107636136983,imu,0.0,0.0,0.0,0.0,0.0,0.000790983217004,0.00210818320348,0.18678240799,-0.0480690020561,9.72377051593
1573333107691822032,42493,1573333107652136983,imu,0.0,0.0,0.0,0.0,0.000615228561328,-0.000175754655676,-0.000175754655676,0.184722307901,-0.0432621018505,9.71258711545
1573333107707740138,42494,1573333107668136983,imu,0.0,0.0,0.0,0.0,0.00166975649538,0.00210923040104,0.000527089434102,0.184820407906,-0.0467937020016,9.72171041584
1573333107723822087,42495,1573333107684136983,imu,0.0,0.0,0.0,0.0,0.0125674178119,-0.00272445896236,0.000175754655676,0.187861508036,-0.0499329021358,9.72190661585
1573333107739795275,42496,1573333107700136983,imu,0.0,0.0,0.0,0.0,-0.0047457247691,-0.000527263967027,0.00281085276034,0.188842508078,-0.0361008015442,9.70885931529
1573333107755837387,42497,1573333107716136983,imu,0.0,0.0,0.0,0.0,0.00667920051446,0.00571246264178,-0.000468446371235,0.179228707666,-0.0478728020477,9.71876741571
1573333107771734615,42498,1573333107732136983,imu,0.0,0.0,0.0,0.0,-0.000263719249976,-0.0054487433918,0.00111264739815,0.178345807629,-0.0385533016491,9.72887171615
1573333107787766458,42499,1573333107748136983,imu,0.0,0.0,0.0,0.0,-8.79645943005e-05,-0.00184551115106,0.00076131261972,0.190117808132,-0.0523854022408,9.71239091544
1573333107803767385,42500,1573333107764136983,imu,0.0,0.0,0.0,0.0,0.00184551115106,-0.000351509311352,0.00187378548494,0.183348907843,-0.0383571016407,9.72475151597
1573333107819853845,42501,1573333107780136983,imu,0.0,0.0,0.0,0.0,0.00210923040104,-0.00114249252836,-0.000995535805338,0.184133707876,-0.0462051019764,9.72269141588
1573333107835865462,42502,1573333107796136983,imu,0.0,0.0,0.0,0.0,0.00228498505671,0.000527263967027,0.00257662957472,0.191981708212,-0.046008901968,9.71739401566
1573333107851838434,42503,1573333107812136983,imu,0.0,0.0,0.0,0.0,-0.000527263967027,0.000439473905652,5.8643062867e-05,0.190117808132,-0.0465975019932,9.72151421583
1573333107867858806,42504,1573333107828136983,imu,0.0,0.0,0.0,0.0,0.00202126580673,0.000351509311352,0.00163956229932,0.186193807964,-0.0434583018589,9.71592251559
1573333107883783813,42505,1573333107844136983,imu,0.0,0.0,0.0,0.0,-0.000878773278379,-0.00158196643401,0.000234223185618,0.188646308069,-0.0467937020016,9.72847931613
1573333107899777539,42506,1573333107860136983,imu,0.0,0.0,0.0,0.0,0.00202126580673,0.000878773278379,0.00146398217657,0.189333008099,-0.0499329021358,9.71700161564
1573333107915728074,42507,1573333107876136983,imu,0.0,0.0,0.0,0.0,0.00290021361804,0.00149400183971,-5.8643062867e-05,0.188450108061,-0.046008901968,9.71199851542
1573333107931773720,42508,1573333107892136983,imu,0.0,0.0,0.0,0.0,0.000527263967027,-0.000703018622703,-0.00240087491904,0.191196908178,-0.0516006022072,9.71288141546
1573333107947768678,42509,1573333107908136983,imu,0.0,0.0,0.0,0.0,0.00307596827371,-0.00377898689642,0.000468446371235,0.189921608124,-0.0507177021694,9.73220711629
1573333107963762689,42510,1573333107924136983,imu,0.0,0.0,0.0,0.0,0.00316375833509,0.00281224902374,-0.00404043721837,0.189529208107,-0.0465975019932,9.72023891578
1573333107979803368,42511,1573333107940136983,imu,0.0,0.0,0.0,0.0,-0.000790983217004,-0.00114249252836,-0.00263509810466,0.187076708002,-0.046008901968,9.725438216
1573333107995771229,42512,1573333107956136983,imu,0.0,0.0,0.0,0.0,0.00131824718403,0.00272445896236,-0.00146398217657,0.187469108019,-0.0517968022156,9.73515011642
1573333108011788559,42513,1573333107972136983,imu,0.0,0.0,0.0,0.0,-0.000263719249976,-0.00184551115106,0.000995535805338,0.188450108061,-0.041496301775,9.68845451442
1573333108027774977,42514,1573333107988136983,imu,0.0,0.0,0.0,0.0,0.00131824718403,-8.79645943005e-05,-0.00163956229932,0.187861508036,-0.0548379023457,9.74211521671
1573333108043789696,42515,1573333108004136983,imu,0.0,0.0,0.0,0.0,-0.00123045712266,-8.79645943005e-05,0.000702669556853,0.185212807922,-0.0413982017708,9.6926728146
1573333108059804791,42516,1573333108020136983,imu,0.0,0.0,0.0,0.0,0.00202126580673,-0.000615228561328,0.000409977841293,0.185016607914,-0.0482652020645,9.75526061728
1573333108075755282,42517,1573333108036136983,imu,0.0,0.0,0.0,0.0,-0.00166975649538,0.000615228561328,0.000468446371235,0.188646308069,-0.0451260019302,9.72455531596
1573333108091830851,42518,1573333108052136983,imu,0.0,0.0,0.0,0.0,-0.000615228561328,-0.000263719249976,-0.000819781149662,0.193453208275,-0.0394362016869,9.6646162134
1573333108107815145,42519,1573333108068136983,imu,0.0,0.0,0.0,0.0,-0.00290021361804,-0.000439473905652,-0.000585557964044,0.194826608334,-0.0533664022827,9.7394665166
1573333108123761671,42520,1573333108084136983,imu,0.0,0.0,0.0,0.0,-0.00202126580673,0.000703018622703,-0.000878424212529,0.191196908178,-0.0456165019512,9.72043511579
1573333108139754891,42521,1573333108100136983,imu,0.0,0.0,0.0,0.0,0.00123045712266,-0.00123045712266,0.001815316955,0.193060808258,-0.0525816022491,9.72288761589
1573333108155821810,42522,1573333108116136983,imu,0.0,0.0,0.0,0.0,0.00175772108968,-0.00193347574536,0.00146398217657,0.195120908346,-0.0499329021358,9.71857121571
1573333108171813160,42523,1573333108132136983,imu,0.0,0.0,0.0,0.0,0.00210923040104,0.000351509311352,0.000527089434102,0.189725408115,-0.0482652020645,9.71798261568
1573333108187776846,42524,1573333108148136983,imu,0.0,0.0,0.0,0.0,0.00149400183971,-0.00114249252836,0.00163956229932,0.189333008099,-0.0495405021191,9.72377051593
1573333108203806710,42525,1573333108164136983,imu,0.0,0.0,0.0,0.0,0.000175754655676,-0.00149400183971,0.000995535805338,0.184820407906,-0.0454203019428,9.70267901503
1573333108219835632,42526,1573333108180136983,imu,0.0,0.0,0.0,0.0,-0.00175772108968,-0.00149400183971,0.00146398217657,0.184329907885,-0.0501291021442,9.73181471627
1573333108235832931,42527,1573333108196136983,imu,0.0,0.0,0.0,0.0,0.00158196643401,-0.00105452793405,-0.000117111592809,0.191393108187,-0.0447336019135,9.72190661585
1573333108251843625,42528,1573333108212136983,imu,0.0,0.0,0.0,0.0,-0.000615228561328,0.00149400183971,-0.00304507594595,0.189333008099,-0.0492462021065,9.70267901503
1573333108267768482,42529,1573333108228136983,imu,0.0,0.0,0.0,0.0,0.00105452793405,8.79645943005e-05,0.00076131261972,0.188842508078,-0.0484614020729,9.72377051593
1573333108283803372,42530,1573333108244136983,imu,0.0,0.0,0.0,0.0,0.00184551115106,-0.00184551115106,-0.00316218753876,0.18913680809,-0.0507177021694,9.72043511579
1573333108299799128,42531,1573333108260136983,imu,0.0,0.0,0.0,0.0,0.0118643991892,0.0278592945862,-0.00456752665247,0.185801407948,-0.0486576020813,9.71307761547
1573333108315804189,42532,1573333108276136983,imu,0.0,0.0,0.0,0.0,0.00632769120311,0.0265410474022,-0.00409908028123,0.190510208149,-0.0499329021358,9.72377051593
1573333108331785220,42533,1573333108292136983,imu,0.0,0.0,0.0,0.0,-0.00852471166552,0.018104125798,0.00649995520028,0.18678240799,-0.0293319012547,9.70827071527
1573333108347842873,42534,1573333108308136983,imu,0.0,0.0,0.0,0.0,0.00632769120311,0.0243440269397,-0.00562153098775,0.188842508078,-0.0535626022911,9.71798261568
1573333108363859677,42535,1573333108324136983,imu,0.0,0.0,0.0,0.0,-0.00421846080207,-0.00606397195313,-0.000878424212529,0.182956507826,-0.0465975019932,9.73387481636
1573333108379840453,42536,1573333108340136983,imu,0.0,0.0,0.0,0.0,-0.00193347574536,-0.000175754655676,-0.00199089707775,0.18678240799,-0.0377685016155,9.70581821516
1573333108395796416,42537,1573333108356136983,imu,0.0,0.0,0.0,0.0,0.00149400183971,0.000175754655676,-0.00240087491904,0.188646308069,-0.051993002224,9.72602681602
1573333108411787130,42538,1573333108372136983,imu,0.0,0.0,0.0,0.0,0.000527263967027,0.000527263967027,-0.00111264739815,0.186586207981,-0.0368856015778,9.71033081535
1573333108427878425,42539,1573333108388136983,imu,0.0,0.0,0.0,0.0,0.00131824718403,-0.000527263967027,-0.000175754655676,0.18727290801,-0.0484614020729,9.72171041584
1573333108443817645,42540,1573333108404136983,imu,0.0,0.0,0.0,0.0,0.00149400183971,0.000439473905652,-0.000585557964044,0.189725408115,-0.0484614020729,9.73201091628
1573333108459893580,42541,1573333108420136983,imu,0.0,0.0,0.0,0.0,-0.000615228561328,8.79645943005e-05,0.00105400433528,0.188450108061,-0.0443412018967,9.69679301477
1573333108475819389,42542,1573333108436136983,imu,0.0,0.0,0.0,0.0,0.00140621177833,0.00351544217937,-0.000234223185618,0.18727290801,-0.0523854022408,9.74044751664
1573333108491783707,42543,1573333108452136983,imu,0.0,0.0,0.0,0.0,-0.000615228561328,-0.00131824718403,-0.00117111592809,0.183741307859,-0.0480690020561,9.7138624155
1573333108507785781,42544,1573333108468136983,imu,0.0,0.0,0.0,0.0,0.000439473905652,-0.00105452793405,0.000292866248485,0.18727290801,-0.0535626022911,9.71700161564
1573333108523799714,42545,1573333108484136983,imu,0.0,0.0,0.0,0.0,0.00149400183971,-0.00158196643401,0.00316218753876,0.18727290801,-0.0471861020184,9.72563441601
1573333108539804329,42546,1573333108500136983,imu,0.0,0.0,0.0,0.0,0.000263719249976,0.000263719249976,-0.000351334778426,0.186586207981,-0.0511101021862,9.71052701536
1573333108555729539,42547,1573333108516136983,imu,0.0,0.0,0.0,0.0,-0.00395474155209,-0.00228498505671,0.00281085276034,0.191196908178,-0.0503253021526,9.72396671594
1573333108571815104,42548,1573333108532136983,imu,0.0,0.0,0.0,0.0,8.79645943005e-05,0.000527263967027,0.000878424212529,0.192570308237,-0.0435564018631,9.70954601532
1573333108587825122,42549,1573333108548136983,imu,0.0,0.0,0.0,0.0,0.0,0.00114249252836,-0.000468446371235,0.184526107893,-0.0437526018715,9.72004271577
1573333108603779301,42550,1573333108564136983,imu,0.0,0.0,0.0,0.0,0.000703018622703,-0.000175754655676,0.00076131261972,0.18678240799,-0.0529740022659,9.71965031575
1573333108619878646,42551,1573333108580136983,imu,0.0,0.0,0.0,0.0,0.0,-0.000351509311352,-0.000409977841293,0.185801407948,-0.0420849018002,9.71631491561
1573333108635961281,42552,1573333108596136983,imu,0.0,0.0,0.0,0.0,0.000790983217004,0.000175754655676,-0.00175667389213,0.18678240799,-0.0451260019302,9.71945411574
1573333108651911221,42553,1573333108612136983,imu,0.0,0.0,0.0,0.0,-0.00237294965101,-0.000615228561328,-0.00158109376938,0.190510208149,-0.0507177021694,9.72092561581
1573333108667901127,42554,1573333108628136983,imu,0.0,0.0,0.0,0.0,0.00140621177833,-0.00237294965101,-0.00076131261972,0.191196908178,-0.051502502203,9.7183750157
1573333108683911972,42555,1573333108644136983,imu,0.0,0.0,0.0,0.0,0.00202126580673,0.000615228561328,0.00158109376938,0.185016607914,-0.0478728020477,9.71817881569
1573333108699819233,42556,1573333108660136983,imu,0.0,0.0,0.0,0.0,0.00175772108968,-0.000527263967027,-0.00111264739815,0.186193807964,-0.0443412018967,9.71798261568
1573333108715808749,42557,1573333108676136983,imu,0.0,0.0,0.0,0.0,0.00193347574536,-0.000175754655676,0.000117111592809,0.183741307859,-0.0434583018589,9.72249521587
1573333108731808138,42558,1573333108692136983,imu,0.0,0.0,0.0,0.0,0.00228498505671,-0.000439473905652,0.000878424212529,0.191196908178,-0.0465975019932,9.71651111562
1573333108747865149,42559,1573333108708136983,imu,0.0,0.0,0.0,0.0,0.00131824718403,0.00105452793405,0.00111264739815,0.193453208275,-0.0492462021065,9.70601441517
1573333108763856579,42560,1573333108724136983,imu,0.0,0.0,0.0,0.0,-0.00114249252836,-0.00184551115106,0.00134687058376,0.188646308069,-0.0492462021065,9.73220711629
1573333108779829933,42561,1573333108740136983,imu,0.0,0.0,0.0,0.0,0.00114249252836,-0.00219719499534,-0.000995535805338,0.18678240799,-0.0428697018337,9.71101751538
1573333108795762036,42562,1573333108756136983,imu,0.0,0.0,0.0,0.0,0.00149400183971,-0.00298800367941,-0.00105400433528,0.18727290801,-0.0462051019764,9.71121371539
1573333108811800941,42563,1573333108772136983,imu,0.0,0.0,0.0,0.0,0.000175754655676,-0.00254870430669,-0.00117111592809,0.18913680809,-0.055034102354,9.73161851626
1573333108827791143,42564,1573333108788136983,imu,0.0,0.0,0.0,0.0,0.00228498505671,8.79645943005e-05,0.000292866248485,0.190510208149,-0.0454203019428,9.70709351521
1573333108843823493,42565,1573333108804136983,imu,0.0,0.0,0.0,0.0,-0.000878773278379,8.79645943005e-05,0.000117111592809,0.191393108187,-0.0465975019932,9.72602681602
1573333108859827211,42566,1573333108820136983,imu,0.0,0.0,0.0,0.0,0.000527263967027,-0.00360323224074,-0.000351334778426,0.184722307901,-0.0447336019135,9.71739401566
1573333108875817514,42567,1573333108836136983,imu,0.0,0.0,0.0,0.0,-0.000615228561328,0.000615228561328,-0.00158109376938,0.185605207939,-0.0467937020016,9.71533391557
1573333108891814943,42568,1573333108852136983,imu,0.0,0.0,0.0,0.0,-0.00175772108968,-0.00114249252836,-0.00134687058376,0.18678240799,-0.041005801754,9.68786591439
1573333108907813434,42569,1573333108868136983,imu,0.0,0.0,0.0,0.0,-0.00158196643401,-0.000263719249976,0.00076131261972,0.189333008099,-0.070533903017,9.81588641987
1573333108923865921,42570,1573333108884136983,imu,0.0,0.0,0.0,0.0,0.00281224902374,0.00404270614639,-0.00251798651185,0.187665308027,-0.035021701498,9.67717301394
1573333108939843148,42571,1573333108900136983,imu,0.0,0.0,0.0,0.0,0.00281224902374,-0.000263719249976,-0.00111264739815,0.189529208107,-0.0348255014896,9.65882831315
1573333108955801336,42572,1573333108916136983,imu,0.0,0.0,0.0,0.0,-0.00202126580673,0.000703018622703,-0.000468446371235,0.185997607956,-0.0676890028954,9.79391201893
1573333108971846100,42573,1573333108932136983,imu,0.0,0.0,0.0,0.0,0.000175754655676,-8.79645943005e-05,0.000234223185618,0.190314008141,-0.0297243012714,9.67442621382
1573333108987869238,42574,1573333108948136983,imu,0.0,0.0,0.0,0.0,0.00536095333043,-0.00158196643401,-0.00175667389213,0.189333008099,-0.051502502203,9.74437151681
1573333109003755255,42575,1573333108964136983,imu,0.0,0.0,0.0,0.0,0.00158196643401,0.000439473905652,0.00175667389213,0.183741307859,-0.0428697018337,9.70248281502
1573333109019905106,42576,1573333108980136983,imu,0.0,0.0,0.0,0.0,0.000527263967027,-0.000527263967027,0.000644201026911,0.190314008141,-0.0575847024632,9.74476391683
1573333109035948882,42577,1573333108996136983,imu,0.0,0.0,0.0,0.0,-0.00131824718403,-0.00131824718403,0.00386485709562,0.193845608292,-0.0389457016659,9.69326141462
1573333109051831746,42578,1573333109012136983,imu,0.0,0.0,0.0,0.0,-0.000615228561328,0.000703018622703,0.000936892742471,0.185016607914,-0.055524602375,9.70562201515
1573333109067813650,42579,1573333109028136983,imu,0.0,0.0,0.0,0.0,-0.00140621177833,0.000527263967027,-0.001815316955,0.184820407906,-0.0511101021862,9.7557511173
1573333109083867339,42580,1573333109044136983,imu,0.0,0.0,0.0,0.0,-0.000439473905652,8.79645943005e-05,-0.000819781149662,0.185212807922,-0.0426735018253,9.70728971522
1573333109099832047,42581,1573333109060136983,imu,0.0,0.0,0.0,0.0,0.00184551115106,-0.00193347574536,-0.00199089707775,0.187469108019,-0.0499329021358,9.7043467151
1573333109115893268,42582,1573333109076136983,imu,0.0,0.0,0.0,0.0,0.00193347574536,-0.00149400183971,-0.00363063391,0.185997607956,-0.0548379023457,9.75035561707
1573333109131793824,42583,1573333109092136983,imu,0.0,0.0,0.0,0.0,0.000878773278379,-0.00114249252836,-0.000234223185618,0.185212807922,-0.0413982017708,9.70003031491
1573333109147857345,42584,1573333109108136983,imu,0.0,0.0,0.0,0.0,0.000263719249976,-0.000263719249976,-0.000878424212529,0.183348907843,-0.050521502161,9.72681161606
1573333109163832814,42585,1573333109124136983,imu,0.0,0.0,0.0,0.0,-0.00158196643401,-0.00123045712266,0.000234223185618,0.183937507868,-0.0447336019135,9.71464721554
1573333109179824184,42586,1573333109140136983,imu,0.0,0.0,0.0,0.0,-0.00105452793405,0.00114249252836,0.000585557964044,0.185212807922,-0.0416925017834,9.71464721554
1573333109195825301,42587,1573333109156136983,imu,0.0,0.0,0.0,0.0,0.000263719249976,-0.00105452793405,5.8643062867e-05,0.182760307817,-0.0426735018253,9.71690351563
1573333109211837910,42588,1573333109172136983,imu,0.0,0.0,0.0,0.0,8.79645943005e-05,0.000263719249976,-0.000819781149662,0.187665308027,-0.0484614020729,9.72229901587
1573333109227901512,42589,1573333109188136983,imu,0.0,0.0,0.0,0.0,0.00175772108968,-0.00166975649538,-0.00146398217657,0.188842508078,-0.0437526018715,9.7231819159
1573333109243879140,42590,1573333109204136983,imu,0.0,0.0,0.0,0.0,0.0,-0.000527263967027,-0.00275220969747,0.185409007931,-0.0480690020561,9.71405861551
1573333109259804684,42591,1573333109220136983,imu,0.0,0.0,0.0,0.0,-8.79645943005e-05,0.000175754655676,-0.000468446371235,0.18913680809,-0.051993002224,9.71690351563
1573333109275839734,42592,1573333109236136983,imu,0.0,0.0,0.0,0.0,-0.000263719249976,-0.00131824718403,0.00275220969747,0.190510208149,-0.0492462021065,9.72396671594
1573333109291802338,42593,1573333109252136983,imu,0.0,0.0,0.0,0.0,0.00149400183971,-0.00166975649538,-0.000175754655676,0.180700207729,-0.0445374019051,9.72337811591
1573333109307803646,42594,1573333109268136983,imu,0.0,0.0,0.0,0.0,-8.79645943005e-05,0.000878773278379,0.000234223185618,0.18678240799,-0.0443412018967,9.7138624155
1573333109323788321,42595,1573333109284136983,imu,0.0,0.0,0.0,0.0,0.00149400183971,-0.00105452793405,0.00380621403275,0.188646308069,-0.0471861020184,9.7231819159
1573333109339814376,42596,1573333109300136983,imu,0.0,0.0,0.0,0.0,-0.00158196643401,0.00307596827371,0.00245951798191,0.190804508162,-0.0451260019302,9.71876741571
1573333109355855491,42597,1573333109316136983,imu,0.0,0.0,0.0,0.0,-0.000351509311352,-0.000527263967027,-0.000936892742471,0.189333008099,-0.0490500020981,9.71631491561
1573333109371843703,42598,1573333109332136983,imu,0.0,0.0,0.0,0.0,8.79645943005e-05,0.000175754655676,0.00245951798191,0.18913680809,-0.0471861020184,9.72896981615
1573333109387819954,42599,1573333109348136983,imu,0.0,0.0,0.0,0.0,-0.00307596827371,0.000175754655676,0.00222529479629,0.186880507994,-0.0447336019135,9.71180231542
1573333109403873111,42600,1573333109364136983,imu,0.0,0.0,0.0,0.0,0.000878773278379,-0.000351509311352,0.00076131261972,0.189921608124,-0.0529740022659,9.72092561581
1573333109419858663,42601,1573333109380136983,imu,0.0,0.0,0.0,0.0,8.79645943005e-05,-0.000615228561328,0.000995535805338,0.191196908178,-0.0486576020813,9.71327381548
1573333109435850619,42602,1573333109396136983,imu,0.0,0.0,0.0,0.0,-8.79645943005e-05,0.00246073971239,-0.000585557964044,0.188940608082,-0.0509139021778,9.73819121655
1573333109451911174,42603,1573333109412136983,imu,0.0,0.0,0.0,0.0,-0.00175772108968,0.000790983217004,0.0,0.183545107851,-0.0471861020184,9.71072321537
1573333109467802739,42604,1573333109428136983,imu,0.0,0.0,0.0,0.0,-0.00149400183971,-0.00175772108968,0.000644201026911,0.184329907885,-0.0494424021149,9.71121371539
1573333109483948575,42605,1573333109444136983,imu,0.0,0.0,0.0,0.0,0.00123045712266,0.00096673787268,0.000468446371235,0.186586207981,-0.0529740022659,9.74378291678
1573333109499828172,42606,1573333109460136983,imu,0.0,0.0,0.0,0.0,-0.00193347574536,-0.000527263967027,0.00163956229932,0.18678240799,-0.0447336019135,9.6996379149
1573333109515841428,42607,1573333109476136983,imu,0.0,0.0,0.0,0.0,-0.000527263967027,-0.00166975649538,-0.00105400433528,0.190117808132,-0.0490500020981,9.7324033163
1573333109531853586,42608,1573333109492136983,imu,0.0,0.0,0.0,0.0,0.00114249252836,-0.000703018622703,-0.000995535805338,0.185212807922,-0.0458127019596,9.72131801582
1573333109547948029,42609,1573333109508136983,imu,0.0,0.0,0.0,0.0,0.00219719499534,-0.000263719249976,0.000702669556853,0.185801407948,-0.0503253021526,9.72337811591
1573333109563787488,42610,1573333109524136983,imu,0.0,0.0,0.0,0.0,0.00325172292939,-0.00237294965101,-0.000585557964044,0.185605207939,-0.0471861020184,9.7136662155
1573333109579791167,42611,1573333109540136983,imu,0.0,0.0,0.0,0.0,0.00184551115106,-0.00140621177833,0.0012882275209,0.18913680809,-0.0503253021526,9.71670731563
1573333109595881485,42612,1573333109556136983,imu,0.0,0.0,0.0,0.0,0.000263719249976,0.000703018622703,0.000234223185618,0.187861508036,-0.0480690020561,9.73279571631
1573333109611854844,42613,1573333109572136983,imu,0.0,0.0,0.0,0.0,0.000703018622703,0.00114249252836,-0.00134687058376,0.188253908052,-0.0473823020267,9.70150181498
1573333109627847672,42614,1573333109588136983,imu,0.0,0.0,0.0,0.0,0.00254870430669,-0.000615228561328,0.001815316955,0.187076708002,-0.0527778022575,9.72337811591
1573333109643839864,42615,1573333109604136983,imu,0.0,0.0,0.0,0.0,0.000263719249976,0.000790983217004,0.001815316955,0.183152707834,-0.0418887017918,9.72416291595
1573333109659869257,42616,1573333109620136983,imu,0.0,0.0,0.0,0.0,0.000263719249976,0.00105452793405,-0.000351334778426,0.189921608124,-0.0488538020897,9.71327381548
1573333109675851621,42617,1573333109636136983,imu,0.0,0.0,0.0,0.0,-0.00158196643401,0.000351509311352,0.00146398217657,0.18678240799,-0.0501291021442,9.72171041584
1573333109691774117,42618,1573333109652136983,imu,0.0,0.0,0.0,0.0,0.00149400183971,-0.00210923040104,0.000292866248485,0.188450108061,-0.0492462021065,9.71719781565
1573333109707856918,42619,1573333109668136983,imu,0.0,0.0,0.0,0.0,0.0,0.000615228561328,0.001815316955,0.186586207981,-0.0501291021442,9.72337811591
1573333109723830517,42620,1573333109684136983,imu,0.0,0.0,0.0,0.0,-0.000175754655676,-0.000703018622703,0.00134687058376,0.18727290801,-0.0494424021149,9.72190661585
1573333109739833935,42621,1573333109700136983,imu,0.0,0.0,0.0,0.0,0.00114249252836,0.000615228561328,-0.000995535805338,0.188253908052,-0.0456165019512,9.71513771556
1573333109755796083,42622,1573333109716136983,imu,0.0,0.0,0.0,0.0,0.000790983217004,-0.00105452793405,0.001815316955,0.188646308069,-0.0476766020393,9.7183750157
1573333109771840079,42623,1573333109732136983,imu,0.0,0.0,0.0,0.0,0.00228498505671,-0.00246073971239,-0.00163956229932,0.187861508036,-0.0478728020477,9.72063131579
1573333109787797952,42624,1573333109748136983,imu,0.0,0.0,0.0,0.0,-0.00219719499534,0.00105452793405,0.0023424063891,0.188253908052,-0.0497367021275,9.71327381548
1573333109803859294,42625,1573333109764136983,imu,0.0,0.0,0.0,0.0,-0.00254870430669,0.00281224902374,-0.000702669556853,0.191785508204,-0.0509139021778,9.72249521587
1573333109819854031,42626,1573333109780136983,imu,0.0,0.0,0.0,0.0,0.00096673787268,0.00131824718403,0.00122975899096,0.189725408115,-0.0449298019218,9.72131801582
1573333109835931480,42627,1573333109796136983,imu,0.0,0.0,0.0,0.0,0.00123045712266,0.000527263967027,-0.00216665173343,0.192766508245,-0.0516006022072,9.71072321537
1573333109851919257,42628,1573333109812136983,imu,0.0,0.0,0.0,0.0,-0.000615228561328,0.00149400183971,0.000527089434102,0.186880507994,-0.0544455023289,9.72455531596
1573333109867760651,42629,1573333109828136983,imu,0.0,0.0,0.0,0.0,-0.00219719499534,0.000439473905652,0.00076131261972,0.188842508078,-0.0497367021275,9.72171041584
1573333109883850719,42630,1573333109844136983,imu,0.0,0.0,0.0,0.0,-0.000351509311352,-0.00123045712266,0.00076131261972,0.187076708002,-0.0503253021526,9.71817881569
1573333109899828327,42631,1573333109860136983,imu,0.0,0.0,0.0,0.0,0.00281224902374,0.000878773278379,0.00122975899096,0.185605207939,-0.0529740022659,9.71513771556
1573333109915836882,42632,1573333109876136983,imu,0.0,0.0,0.0,0.0,0.00131824718403,0.000790983217004,-0.00140533911371,0.187076708002,-0.0497367021275,9.72583061602
1573333109931937268,42633,1573333109892136983,imu,0.0,0.0,0.0,0.0,-0.00114249252836,-0.00298800367941,-0.000234223185618,0.188057708044,-0.0507177021694,9.72063131579
1573333109947931139,42634,1573333109908136983,imu,0.0,0.0,0.0,0.0,-0.000790983217004,0.000615228561328,0.00263509810466,0.18727290801,-0.0478728020477,9.71199851542
1573333109963761452,42635,1573333109924136983,imu,0.0,0.0,0.0,0.0,-0.00131824718403,0.000703018622703,0.00111264739815,0.187076708002,-0.0437526018715,9.72435911595
1573333109979895662,42636,1573333109940136983,imu,0.0,0.0,0.0,0.0,-0.000175754655676,0.00202126580673,0.000585557964044,0.185409007931,-0.0412020017624,9.72112181581
1573333109995924358,42637,1573333109956136983,imu,0.0,0.0,0.0,0.0,-0.00158196643401,0.0,0.000819781149662,0.182956507826,-0.0422811018085,9.71778641567
1573333110011929049,42638,1573333109972136983,imu,0.0,0.0,0.0,0.0,-0.00369119683504,0.00131824718403,-0.000234223185618,0.18913680809,-0.0473823020267,9.71984651576
1573333110027823400,42639,1573333109988136983,imu,0.0,0.0,0.0,0.0,0.000439473905652,0.00298800367941,-0.000995535805338,0.187469108019,-0.0488538020897,9.71945411574
1573333110043947843,42640,1573333110004136983,imu,0.0,0.0,0.0,0.0,-0.00166975649538,0.000175754655676,0.0023424063891,0.188940608082,-0.0476766020393,9.71670731563
1573333110059938456,42641,1573333110020136983,imu,0.0,0.0,0.0,0.0,0.000878773278379,0.000790983217004,-0.00245951798191,0.187076708002,-0.0451260019302,9.71965031575
1573333110075833759,42642,1573333110036136983,imu,0.0,0.0,0.0,0.0,-0.00377898689642,0.00237294965101,0.000995535805338,0.186880507994,-0.0478728020477,9.72337811591
1573333110091886761,42643,1573333110052136983,imu,0.0,0.0,0.0,0.0,0.000263719249976,-0.00158196643401,-0.00076131261972,0.184722307901,-0.0486576020813,9.71906171573
1573333110107927034,42644,1573333110068136983,imu,0.0,0.0,0.0,0.0,-0.00114249252836,-0.000263719249976,0.00105400433528,0.185997607956,-0.041005801754,9.71651111562
1573333110123869552,42645,1573333110084136983,imu,0.0,0.0,0.0,0.0,0.000703018622703,0.00105452793405,0.00163956229932,0.186880507994,-0.0443412018967,9.72435911595
1573333110139909399,42646,1573333110100136983,imu,0.0,0.0,0.0,0.0,0.00254870430669,8.79645943005e-05,-0.000995535805338,0.188940608082,-0.0484614020729,9.72151421583
1573333110155812986,42647,1573333110116136983,imu,0.0,0.0,0.0,0.0,-0.00096673787268,-0.000615228561328,0.00122975899096,0.191393108187,-0.0497367021275,9.71484341555
1573333110171791862,42648,1573333110132136983,imu,0.0,0.0,0.0,0.0,-0.00281224902374,0.000263719249976,0.000292866248485,0.185605207939,-0.0471861020184,9.72583061602
1573333110187867296,42649,1573333110148136983,imu,0.0,0.0,0.0,0.0,0.000527263967027,0.000615228561328,0.000995535805338,0.184329907885,-0.0445374019051,9.72269141588
1573333110203861448,42650,1573333110164136983,imu,0.0,0.0,0.0,0.0,0.000878773278379,-0.00246073971239,5.8643062867e-05,0.186880507994,-0.0480690020561,9.71484341555
1573333110219890334,42651,1573333110180136983,imu,0.0,0.0,0.0,0.0,-0.000439473905652,-0.00114249252836,-0.00169820536219,0.186390007973,-0.0464013019848,9.72455531596
1573333110235902748,42652,1573333110196136983,imu,0.0,0.0,0.0,0.0,-0.000439473905652,-0.00263649436806,-0.00281085276034,0.18727290801,-0.0456165019512,9.7161187156
1573333110251870494,42653,1573333110212136983,imu,0.0,0.0,0.0,0.0,0.000351509311352,0.000703018622703,-0.000527089434102,0.193453208275,-0.0521892022324,9.71631491561
1573333110267862234,42654,1573333110228136983,imu,0.0,0.0,0.0,0.0,-0.000263719249976,-0.00096673787268,-0.00327929913157,0.189333008099,-0.0413982017708,9.71739401566
1573333110283844930,42655,1573333110244136983,imu,0.0,0.0,0.0,0.0,0.00333968752369,-0.000615228561328,-0.00322065606871,0.188842508078,-0.0458127019596,9.72435911595
1573333110299827965,42656,1573333110260136983,imu,0.0,0.0,0.0,0.0,0.000527263967027,-0.00123045712266,-0.00304507594595,0.190314008141,-0.0517968022156,9.72396671594
1573333110315814890,42657,1573333110276136983,imu,0.0,0.0,0.0,0.0,-0.00123045712266,0.00184551115106,0.000819781149662,0.183152707834,-0.0437526018715,9.7138624155
1573333110331834631,42658,1573333110292136983,imu,0.0,0.0,0.0,0.0,-0.000263719249976,0.000263719249976,-0.000527089434102,0.186880507994,-0.0465975019932,9.72210281586
1573333110347827835,42659,1573333110308136983,imu,0.0,0.0,0.0,0.0,0.000527263967027,-0.00158196643401,-0.00409908028123,0.189921608124,-0.04698990201,9.71925791574
1573333110363794388,42660,1573333110324136983,imu,0.0,0.0,0.0,0.0,-0.000351509311352,-0.00325172292939,0.000644201026911,0.18678240799,-0.0467937020016,9.71513771556
1573333110379796853,42661,1573333110340136983,imu,0.0,0.0,0.0,0.0,0.000175754655676,-0.00193347574536,-0.00163956229932,0.188940608082,-0.0503253021526,9.72377051593
1573333110395920845,42662,1573333110356136983,imu,0.0,0.0,0.0,0.0,0.00123045712266,-0.000527263967027,0.000468446371235,0.189725408115,-0.0494424021149,9.71670731563
1573333110411778391,42663,1573333110372136983,imu,0.0,0.0,0.0,0.0,0.00149400183971,-0.00149400183971,-0.000468446371235,0.186390007973,-0.0462051019764,9.71690351563
1573333110427898728,42664,1573333110388136983,imu,0.0,0.0,0.0,0.0,0.000615228561328,0.000263719249976,0.000702669556853,0.186390007973,-0.0478728020477,9.71798261568
1573333110443809558,42665,1573333110404136983,imu,0.0,0.0,0.0,0.0,0.000263719249976,-0.00123045712266,-0.000292866248485,0.189921608124,-0.0441450018883,9.72171041584
1573333110459790253,42666,1573333110420136983,imu,0.0,0.0,0.0,0.0,-0.000615228561328,-0.00184551115106,0.000702669556853,0.188253908052,-0.0480690020561,9.71670731563
1573333110475765310,42667,1573333110436136983,imu,0.0,0.0,0.0,0.0,-8.79645943005e-05,0.00096673787268,-0.00357199084713,0.182073607788,-0.0473823020267,9.71906171573
1573333110491822828,42668,1573333110452136983,imu,0.0,0.0,0.0,0.0,0.0047457247691,-0.000703018622703,-0.000585557964044,0.185801407948,-0.0434583018589,9.71925791574
1573333110507819099,42669,1573333110468136983,imu,0.0,0.0,0.0,0.0,0.00316375833509,-8.79645943005e-05,-0.000234223185618,0.18913680809,-0.0484614020729,9.71965031575
1573333110523836359,42670,1573333110484136983,imu,0.0,0.0,0.0,0.0,0.0,-0.000615228561328,-0.00450905812253,0.186586207981,-0.0473823020267,9.7161187156
1573333110539814825,42671,1573333110500136983,imu,0.0,0.0,0.0,0.0,-0.00123045712266,0.000527263967027,-0.000585557964044,0.183741307859,-0.0453222019386,9.72112181581
1573333110555876387,42672,1573333110516136983,imu,0.0,0.0,0.0,0.0,0.000527263967027,-0.000527263967027,0.00140533911371,0.183545107851,-0.0478728020477,9.72377051593
1573333110571833437,42673,1573333110532136983,imu,0.0,0.0,0.0,0.0,-0.000175754655676,0.000615228561328,0.000819781149662,0.187665308027,-0.0464013019848,9.71592251559
1573333110587835076,42674,1573333110548136983,imu,0.0,0.0,0.0,0.0,-0.00272445896236,0.00149400183971,-0.000351334778426,0.189725408115,-0.0494424021149,9.71798261568
1573333110603863682,42675,1573333110564136983,imu,0.0,0.0,0.0,0.0,-8.79645943005e-05,0.0,5.8643062867e-05,0.188842508078,-0.0513063021946,9.71445101553
1573333110619880230,42676,1573333110580136983,imu,0.0,0.0,0.0,0.0,-0.000527263967027,-0.00166975649538,-0.000995535805338,0.18913680809,-0.0474804020309,9.71651111562
1573333110635872122,42677,1573333110596136983,imu,0.0,0.0,0.0,0.0,0.00193347574536,0.000351509311352,0.00316218753876,0.184820407906,-0.0441450018883,9.71945411574
1573333110651838604,42678,1573333110612136983,imu,0.0,0.0,0.0,0.0,0.000615228561328,0.00175772108968,0.00111264739815,0.187861508036,-0.0480690020561,9.71700161564
1573333110667819365,42679,1573333110628136983,imu,0.0,0.0,0.0,0.0,0.000175754655676,0.00193347574536,0.000175754655676,0.188940608082,-0.0473823020267,9.71484341555
1573333110683864810,42680,1573333110644136983,imu,0.0,0.0,0.0,0.0,-0.000439473905652,-0.00175772108968,-0.00286932129028,0.191785508204,-0.0503253021526,9.7231819159
1573333110699842679,42681,1573333110660136983,imu,0.0,0.0,0.0,0.0,0.00202126580673,0.000351509311352,-0.00146398217657,0.189921608124,-0.0495405021191,9.71464721554
1573333110715846567,42682,1573333110676136983,imu,0.0,0.0,0.0,0.0,-0.00105452793405,0.00246073971239,-0.000409977841293,0.188646308069,-0.0447336019135,9.72043511579
1573333110731826175,42683,1573333110692136983,imu,0.0,0.0,0.0,0.0,-0.00281224902374,0.000439473905652,0.00152245070651,0.185212807922,-0.041496301775,9.72563441601
1573333110747855884,42684,1573333110708136983,imu,0.0,0.0,0.0,0.0,-0.00316375833509,-0.00228498505671,0.0012882275209,0.189529208107,-0.0480690020561,9.71857121571
1573333110763833597,42685,1573333110724136983,imu,0.0,0.0,0.0,0.0,-0.00202126580673,-0.000175754655676,0.000644201026911,0.188842508078,-0.0533664022827,9.71984651576
1573333110779835802,42686,1573333110740136983,imu,0.0,0.0,0.0,0.0,0.00193347574536,0.00105452793405,-0.00122975899096,0.189725408115,-0.0516006022072,9.71925791574
1573333110795873484,42687,1573333110756136983,imu,0.0,0.0,0.0,0.0,-0.000263719249976,-8.79645943005e-05,-0.00076131261972,0.18913680809,-0.0451260019302,9.71876741571
1573333110811848271,42688,1573333110772136983,imu,0.0,0.0,0.0,0.0,-0.000439473905652,-0.00210923040104,-0.000175754655676,0.185409007931,-0.0458127019596,9.72112181581
1573333110827867751,42689,1573333110788136983,imu,0.0,0.0,0.0,0.0,-0.00105452793405,0.00140621177833,0.000117111592809,0.181681207771,-0.0492462021065,9.71778641567
1573333110843840774,42690,1573333110804136983,imu,0.0,0.0,0.0,0.0,-0.00246073971239,0.00096673787268,0.00204954014062,0.18727290801,-0.0513063021946,9.71906171573
1573333110859928572,42691,1573333110820136983,imu,0.0,0.0,0.0,0.0,-0.00298800367941,0.00114249252836,0.00339641072438,0.18913680809,-0.0531702022743,9.71513771556
1573333110875856640,42692,1573333110836136983,imu,0.0,0.0,0.0,0.0,-0.000878773278379,0.00131824718403,0.00251798651185,0.189725408115,-0.0546417023373,9.71553011558
1573333110891813426,42693,1573333110852136983,imu,0.0,0.0,0.0,0.0,-0.000703018622703,-0.000175754655676,-0.00152245070651,0.188253908052,-0.0471861020184,9.72269141588
1573333110907804610,42694,1573333110868136983,imu,0.0,0.0,0.0,0.0,0.000703018622703,0.00131824718403,0.000936892742471,0.185997607956,-0.0471861020184,9.71945411574
1573333110923848837,42695,1573333110884136983,imu,0.0,0.0,0.0,0.0,-0.00096673787268,-0.000703018622703,0.0023424063891,0.183348907843,-0.0474804020309,9.72112181581
1573333110939784724,42696,1573333110900136983,imu,0.0,0.0,0.0,0.0,-0.000790983217004,-0.00202126580673,0.00204954014062,0.18678240799,-0.0458127019596,9.72063131579
1573333110955819900,42697,1573333110916136983,imu,0.0,0.0,0.0,0.0,0.000878773278379,0.00114249252836,-0.00163956229932,0.188253908052,-0.0495405021191,9.71906171573
1573333110971908054,42698,1573333110932136983,imu,0.0,0.0,0.0,0.0,-0.00114249252836,0.00219719499534,-0.0023424063891,0.18727290801,-0.0503253021526,9.71759021566
1573333110987796421,42699,1573333110948136983,imu,0.0,0.0,0.0,0.0,-0.000878773278379,-0.000263719249976,0.000292866248485,0.189529208107,-0.0478728020477,9.71817881569
1573333111003927860,42700,1573333110964136983,imu,0.0,0.0,0.0,0.0,0.000615228561328,-0.000703018622703,0.0012882275209,0.188940608082,-0.0503253021526,9.72583061602
1573333111019897149,42701,1573333110980136983,imu,0.0,0.0,0.0,0.0,0.00254870430669,0.000263719249976,5.8643062867e-05,0.186193807964,-0.0486576020813,9.71817881569
1573333111035816994,42702,1573333110996136983,imu,0.0,0.0,0.0,0.0,-0.00123045712266,-0.00158196643401,0.00152245070651,0.18678240799,-0.0484614020729,9.71925791574
1573333111051870397,42703,1573333111012136983,imu,0.0,0.0,0.0,0.0,0.000527263967027,-0.000703018622703,5.8643062867e-05,0.189529208107,-0.0495405021191,9.71965031575
1573333111067812739,42704,1573333111028136983,imu,0.0,0.0,0.0,0.0,0.00254870430669,-0.000439473905652,0.000351334778426,0.184329907885,-0.0454203019428,9.71670731563
1573333111083836619,42705,1573333111044136983,imu,0.0,0.0,0.0,0.0,0.00210923040104,-0.000615228561328,-0.000702669556853,0.186390007973,-0.04698990201,9.71876741571
1573333111099826079,42706,1573333111060136983,imu,0.0,0.0,0.0,0.0,0.0,-0.00140621177833,0.00105400433528,0.189921608124,-0.0501291021442,9.71817881569
1573333111115832534,42707,1573333111076136983,imu,0.0,0.0,0.0,0.0,0.000878773278379,0.00105452793405,0.00216665173343,0.184526107893,-0.0456165019512,9.72190661585
1573333111131919475,42708,1573333111092136983,imu,0.0,0.0,0.0,0.0,0.00421846080207,0.00105452793405,-0.00105400433528,0.185016607914,-0.0473823020267,9.72416291595
1573333111147841350,42709,1573333111108136983,imu,0.0,0.0,0.0,0.0,0.000790983217004,-0.00175772108968,-0.000644201026911,0.185997607956,-0.0420849018002,9.72092561581
1573333111163875238,42710,1573333111124136983,imu,0.0,0.0,0.0,0.0,0.00105452793405,0.0,-0.000819781149662,0.184820407906,-0.0420849018002,9.72377051593
1573333111179867234,42711,1573333111140136983,imu,0.0,0.0,0.0,0.0,-0.000878773278379,0.000175754655676,-0.00175667389213,0.183741307859,-0.0454203019428,9.72151421583
1573333111195855447,42712,1573333111156136983,imu,0.0,0.0,0.0,0.0,0.000263719249976,-0.00237294965101,-0.00228376332623,0.184526107893,-0.0458127019596,9.72112181581
1573333111211925338,42713,1573333111172136983,imu,0.0,0.0,0.0,0.0,0.000615228561328,-0.000439473905652,-0.00117111592809,0.187076708002,-0.0480690020561,9.71817881569
1573333111227878044,42714,1573333111188136983,imu,0.0,0.0,0.0,0.0,-0.000439473905652,-0.00096673787268,0.000175754655676,0.186880507994,-0.0516006022072,9.71817881569
1573333111243842592,42715,1573333111204136983,imu,0.0,0.0,0.0,0.0,0.00166975649538,0.000439473905652,-0.00216665173343,0.188057708044,-0.0465975019932,9.71906171573
1573333111259902200,42716,1573333111220136983,imu,0.0,0.0,0.0,0.0,-0.000351509311352,0.00114249252836,0.00146398217657,0.188842508078,-0.0517968022156,9.71896361572
1573333111275898045,42717,1573333111236136983,imu,0.0,0.0,0.0,0.0,0.000527263967027,-0.00219719499534,0.000995535805338,0.188940608082,-0.0503253021526,9.71965031575
1573333111291857116,42718,1573333111252136983,imu,0.0,0.0,0.0,0.0,-0.000175754655676,-0.00123045712266,-0.00158109376938,0.187076708002,-0.0474804020309,9.71876741571
1573333111307823388,42719,1573333111268136983,imu,0.0,0.0,0.0,0.0,0.00175772108968,0.00193347574536,-0.00292796435315,0.185605207939,-0.0458127019596,9.72151421583
1573333111323819679,42720,1573333111284136983,imu,0.0,0.0,0.0,0.0,0.000351509311352,0.000615228561328,0.001815316955,0.182466007805,-0.0451260019302,9.71896361572
1573333111339929112,42721,1573333111300136983,imu,0.0,0.0,0.0,0.0,0.00184551115106,0.000878773278379,0.000175754655676,0.187469108019,-0.0467937020016,9.71945411574
1573333111355912794,42722,1573333111316136983,imu,0.0,0.0,0.0,0.0,-8.79645943005e-05,-0.000615228561328,-0.00117111592809,0.186390007973,-0.0490500020981,9.71965031575
1573333111371841595,42723,1573333111332136983,imu,0.0,0.0,0.0,0.0,0.00219719499534,0.00114249252836,-0.00146398217657,0.185016607914,-0.0501291021442,9.71670731563
1573333111387968483,42724,1573333111348136983,imu,0.0,0.0,0.0,0.0,0.000527263967027,-0.000527263967027,0.00222529479629,0.191981708212,-0.0473823020267,9.71425481552
1573333111403893996,42725,1573333111364136983,imu,0.0,0.0,0.0,0.0,-0.000175754655676,0.00096673787268,0.000644201026911,0.188646308069,-0.0486576020813,9.71876741571
1573333111419900155,42726,1573333111380136983,imu,0.0,0.0,0.0,0.0,-0.00114249252836,0.00210923040104,0.00117111592809,0.185801407948,-0.0453222019386,9.72249521587
1573333111435927759,42727,1573333111396136983,imu,0.0,0.0,0.0,0.0,0.00096673787268,-0.00114249252836,0.00193242854781,0.184133707876,-0.0413982017708,9.71857121571
1573333111451807601,42728,1573333111412136983,imu,0.0,0.0,0.0,0.0,8.79645943005e-05,0.000790983217004,0.000234223185618,0.185409007931,-0.0445374019051,9.71906171573
1573333111467867534,42729,1573333111428136983,imu,0.0,0.0,0.0,0.0,-0.000351509311352,0.000615228561328,0.000351334778426,0.187665308027,-0.0480690020561,9.71945411574
1573333111483859521,42730,1573333111444136983,imu,0.0,0.0,0.0,0.0,-0.000878773278379,0.0,0.000644201026911,0.184133707876,-0.0449298019218,9.71896361572
1573333111499837084,42731,1573333111460136983,imu,0.0,0.0,0.0,0.0,0.00228498505671,0.00096673787268,0.000702669556853,0.18678240799,-0.0465975019932,9.72023891578
1573333111515902981,42732,1573333111476136983,imu,0.0,0.0,0.0,0.0,0.00175772108968,0.00123045712266,-0.00286932129028,0.185605207939,-0.0473823020267,9.71651111562
1573333111531892773,42733,1573333111492136983,imu,0.0,0.0,0.0,0.0,0.00228498505671,0.00166975649538,-0.00163956229932,0.187665308027,-0.0492462021065,9.71906171573
1573333111547823352,42734,1573333111508136983,imu,0.0,0.0,0.0,0.0,0.00210923040104,0.00246073971239,0.000117111592809,0.186193807964,-0.0499329021358,9.72475151597
1573333111563919640,42735,1573333111524136983,imu,0.0,0.0,0.0,0.0,-0.000527263967027,-0.000615228561328,-0.000644201026911,0.184329907885,-0.0480690020561,9.71759021566
1573333111579905146,42736,1573333111540136983,imu,0.0,0.0,0.0,0.0,-0.00228498505671,-0.000263719249976,-0.00210818320348,0.187665308027,-0.0484614020729,9.7183750157
1573333111595859531,42737,1573333111556136983,imu,0.0,0.0,0.0,0.0,0.00237294965101,0.00158196643401,0.000644201026911,0.191196908178,-0.0488538020897,9.71631491561
1573333111611867088,42738,1573333111572136983,imu,0.0,0.0,0.0,0.0,-0.00219719499534,0.00149400183971,0.000936892742471,0.185997607956,-0.0474804020309,9.7161187156
1573333111627816607,42739,1573333111588136983,imu,0.0,0.0,0.0,0.0,-0.000263719249976,-0.00149400183971,-0.0023424063891,0.178345807629,-0.0456165019512,9.72416291595
1573333111643813890,42740,1573333111604136983,imu,0.0,0.0,0.0,0.0,0.000615228561328,0.0,0.000585557964044,0.187076708002,-0.0464013019848,9.71739401566
1573333111659852735,42741,1573333111620136983,imu,0.0,0.0,0.0,0.0,-0.00123045712266,0.0,0.00175667389213,0.186390007973,-0.0494424021149,9.71631491561
1573333111675798966,42742,1573333111636136983,imu,0.0,0.0,0.0,0.0,-0.00096673787268,0.00140621177833,0.00140533911371,0.182956507826,-0.0465975019932,9.71945411574
1573333111691823648,42743,1573333111652136983,imu,0.0,0.0,0.0,0.0,0.00114249252836,-0.000703018622703,0.00169820536219,0.188842508078,-0.0517968022156,9.71817881569
1573333111707785079,42744,1573333111668136983,imu,0.0,0.0,0.0,0.0,0.000263719249976,8.79645943005e-05,0.00122975899096,0.187469108019,-0.0513063021946,9.72396671594
1573333111723807290,42745,1573333111684136983,imu,0.0,0.0,0.0,0.0,-0.000703018622703,0.00140621177833,-0.000175754655676,0.190804508162,-0.0484614020729,9.71513771556
1573333111739817148,42746,1573333111700136983,imu,0.0,0.0,0.0,0.0,0.00219719499534,0.00325172292939,0.00210818320348,0.18727290801,-0.0464013019848,9.71533391557
1573333111755803962,42747,1573333111716136983,imu,0.0,0.0,0.0,0.0,0.00123045712266,0.00175772108968,-0.000409977841293,0.182466007805,-0.0492462021065,9.725438216
1573333111771880524,42748,1573333111732136983,imu,0.0,0.0,0.0,0.0,-0.000527263967027,-0.00158196643401,-0.00298643288309,0.188842508078,-0.046008901968,9.71798261568
1573333111787822069,42749,1573333111748136983,imu,0.0,0.0,0.0,0.0,-0.000527263967027,-0.000263719249976,0.000644201026911,0.187076708002,-0.0476766020393,9.71817881569
1573333111803823297,42750,1573333111764136983,imu,0.0,0.0,0.0,0.0,-0.000615228561328,-0.000527263967027,-0.000409977841293,0.184133707876,-0.0471861020184,9.72092561581
1573333111819787664,42751,1573333111780136983,imu,0.0,0.0,0.0,0.0,0.00184551115106,-0.000615228561328,-0.000468446371235,0.187076708002,-0.0447336019135,9.7183750157
1573333111835789639,42752,1573333111796136983,imu,0.0,0.0,0.0,0.0,0.000351509311352,-0.000263719249976,0.000995535805338,0.18678240799,-0.0456165019512,9.71965031575
1573333111851818450,42753,1573333111812136983,imu,0.0,0.0,0.0,0.0,0.000878773278379,-0.000263719249976,-0.00269374116753,0.183152707834,-0.0428697018337,9.72210281586
1573333111867849713,42754,1573333111828136983,imu,0.0,0.0,0.0,0.0,-0.000175754655676,0.00096673787268,0.00204954014062,0.18727290801,-0.0471861020184,9.71690351563
1573333111883898169,42755,1573333111844136983,imu,0.0,0.0,0.0,0.0,0.000351509311352,0.00140621177833,0.00269374116753,0.186880507994,-0.0480690020561,9.72063131579
1573333111899754999,42756,1573333111860136983,imu,0.0,0.0,0.0,0.0,0.000703018622703,0.000351509311352,0.00210818320348,0.18678240799,-0.0501291021442,9.71778641567
1573333111915877046,42757,1573333111876136983,imu,0.0,0.0,0.0,0.0,0.00149400183971,-0.000615228561328,-0.000878424212529,0.187861508036,-0.0523854022408,9.72092561581
1573333111931891494,42758,1573333111892136983,imu,0.0,0.0,0.0,0.0,-0.00184551115106,-0.000790983217004,0.00298643288309,0.187076708002,-0.0480690020561,9.7208275158
1573333111947889609,42759,1573333111908136983,imu,0.0,0.0,0.0,0.0,0.000175754655676,0.000527263967027,-0.00152245070651,0.18678240799,-0.0478728020477,9.71984651576
1573333111963809319,42760,1573333111924136983,imu,0.0,0.0,0.0,0.0,-0.00184551115106,-0.000615228561328,0.0,0.182662207813,-0.0453222019386,9.72092561581
1573333111979819447,42761,1573333111940136983,imu,0.0,0.0,0.0,0.0,-0.000175754655676,-0.000615228561328,0.00111264739815,0.187861508036,-0.0521892022324,9.71719781565
1573333111995825697,42762,1573333111956136983,imu,0.0,0.0,0.0,0.0,0.00369119683504,-0.00272445896236,0.000468446371235,0.190510208149,-0.046008901968,9.71984651576
1573333112011821076,42763,1573333111972136983,imu,0.0,0.0,0.0,0.0,0.00158196643401,-8.79645943005e-05,-5.8643062867e-05,0.18678240799,-0.0482652020645,9.71984651576
1573333112027917539,42764,1573333111988136983,imu,0.0,0.0,0.0,0.0,-0.00131824718403,-0.000439473905652,-0.001815316955,0.183741307859,-0.0441450018883,9.72190661585
1573333112043835970,42765,1573333112004136983,imu,0.0,0.0,0.0,0.0,0.0,0.00210923040104,0.000234223185618,0.182466007805,-0.046008901968,9.71965031575
1573333112059805445,42766,1573333112020136983,imu,0.0,0.0,0.0,0.0,-0.00219719499534,0.00158196643401,0.00199089707775,0.186390007973,-0.0439488018799,9.72269141588
1573333112075810617,42767,1573333112036136983,imu,0.0,0.0,0.0,0.0,0.000175754655676,0.000527263967027,-0.000527089434102,0.186586207981,-0.0462051019764,9.72043511579
1573333112091848975,42768,1573333112052136983,imu,0.0,0.0,0.0,0.0,0.000527263967027,-0.000263719249976,-5.8643062867e-05,0.185212807922,-0.0488538020897,9.71906171573
1573333112107858006,42769,1573333112068136983,imu,0.0,0.0,0.0,0.0,-0.00123045712266,-0.00448218005205,0.000585557964044,0.182466007805,-0.0471861020184,9.72112181581
1573333112123853270,42770,1573333112084136983,imu,0.0,0.0,0.0,0.0,-0.000351509311352,-0.000351509311352,0.0012882275209,0.188646308069,-0.0525816022491,9.71700161564
1573333112139809770,42771,1573333112100136983,imu,0.0,0.0,0.0,0.0,0.00175772108968,-0.00123045712266,0.000234223185618,0.187861508036,-0.0465975019932,9.72396671594
1573333112155805314,42772,1573333112116136983,imu,0.0,0.0,0.0,0.0,0.000703018622703,0.000263719249976,0.00076131261972,0.183152707834,-0.0437526018715,9.72229901587
1573333112171821612,42773,1573333112132136983,imu,0.0,0.0,0.0,0.0,0.00237294965101,0.00131824718403,0.00111264739815,0.189333008099,-0.0467937020016,9.71906171573
1573333112187641749,42774,1573333112148136983,imu,0.0,0.0,0.0,0.0,0.00166975649538,0.00246073971239,-0.000936892742471,0.193845608292,-0.0533664022827,9.71759021566
1573333112203558069,42775,1573333112164136983,imu,0.0,0.0,0.0,0.0,0.000351509311352,0.00140621177833,5.8643062867e-05,0.189333008099,-0.0521892022324,9.72249521587
1573333112219751743,42776,1573333112180136983,imu,0.0,0.0,0.0,0.0,0.000615228561328,0.00290021361804,0.00245951798191,0.190510208149,-0.0513063021946,9.71572631558
1573333112235810226,42777,1573333112196136983,imu,0.0,0.0,0.0,0.0,-0.00210923040104,-0.000175754655676,-0.00281085276034,0.187469108019,-0.0499329021358,9.71965031575
1573333112251822835,42778,1573333112212136983,imu,0.0,0.0,0.0,0.0,-0.000615228561328,0.000439473905652,0.00216665173343,0.180700207729,-0.041496301775,9.7231819159
1573333112267811433,42779,1573333112228136983,imu,0.0,0.0,0.0,0.0,-0.00166975649538,-0.00202126580673,0.00152245070651,0.183937507868,-0.0451260019302,9.71425481552
1573333112283810055,42780,1573333112244136983,imu,0.0,0.0,0.0,0.0,-0.00096673787268,0.00105452793405,0.000175754655676,0.182466007805,-0.0451260019302,9.72112181581
1573333112299857445,42781,1573333112260136983,imu,0.0,0.0,0.0,0.0,-0.00386695149072,0.000878773278379,-0.000117111592809,0.186193807964,-0.0513063021946,9.72004271577
1573333112315895347,42782,1573333112276136983,imu,0.0,0.0,0.0,0.0,-0.00105452793405,-0.000439473905652,-0.000351334778426,0.182956507826,-0.0443412018967,9.7208275158
1573333112331865513,42783,1573333112292136983,imu,0.0,0.0,0.0,0.0,-0.000351509311352,-0.00131824718403,-0.00146398217657,0.187665308027,-0.0503253021526,9.71876741571
1573333112347906493,42784,1573333112308136983,imu,0.0,0.0,0.0,0.0,-0.000527263967027,-0.000790983217004,0.000175754655676,0.185409007931,-0.0443412018967,9.72357431592
1573333112363809338,42785,1573333112324136983,imu,0.0,0.0,0.0,0.0,0.000615228561328,0.00105452793405,0.00257662957472,0.185409007931,-0.0424773018169,9.71778641567
1573333112379821020,42786,1573333112340136983,imu,0.0,0.0,0.0,0.0,-0.00439421545775,0.000351509311352,0.00275220969747,0.18727290801,-0.0478728020477,9.7183750157
1573333112395847356,42787,1573333112356136983,imu,0.0,0.0,0.0,0.0,0.000439473905652,0.000878773278379,-5.8643062867e-05,0.188057708044,-0.0454203019428,9.71798261568
1573333112411851070,42788,1573333112372136983,imu,0.0,0.0,0.0,0.0,0.00377898689642,-0.000790983217004,-0.00163956229932,0.189921608124,-0.0447336019135,9.71798261568
1573333112427754572,42789,1573333112388136983,imu,0.0,0.0,0.0,0.0,-0.00193347574536,0.000175754655676,0.000117111592809,0.184722307901,-0.0428697018337,9.71876741571
1573333112443861920,42790,1573333112404136983,imu,0.0,0.0,0.0,0.0,0.000439473905652,0.00263649436806,0.000351334778426,0.181681207771,-0.041496301775,9.71778641567
1573333112459916405,42791,1573333112420136983,imu,0.0,0.0,0.0,0.0,0.00360323224074,0.00878843091549,0.00286932129028,0.1940418083,-0.0521892022324,9.71553011558
1573333112475828061,42792,1573333112436136983,imu,0.0,0.0,0.0,0.0,0.00333968752369,-0.0310232274542,0.00345487925432,0.183545107851,-0.056505602417,9.72249521587
1573333112491907460,42793,1573333112452136983,imu,0.0,0.0,0.0,0.0,-0.0055367079861,0.00158196643401,0.00357199084713,0.184133707876,-0.0327654014015,9.72229901587
1573333112507875631,42794,1573333112468136983,imu,0.0,0.0,0.0,0.0,0.00114249252836,0.0896420302446,0.0144054240472,0.311761813335,-0.201693608627,9.50078920639
1573333112523895497,42795,1573333112484136983,imu,0.0,0.0,0.0,0.0,0.0130946817789,0.0115128898779,-0.0263511555795,1.27892975471,0.108302404633,9.56975350934
1573333112539784927,42796,1573333112500136983,imu,0.0,0.0,0.0,0.0,0.0101946426938,0.00456997011342,0.0119459060653,1.30355285576,-0.130276805573,9.6717775137
1573333112555794536,42797,1573333112516136983,imu,0.0,0.0,0.0,0.0,0.00272445896236,0.000175754655676,-0.00392332562556,1.10548894729,0.135476105795,9.83962662088
1573333112571799255,42798,1573333112532136983,imu,0.0,0.0,0.0,0.0,0.00351544217937,-0.00307596827371,0.0050359730237,1.18573475072,-0.0583695024967,9.67776161396
1573333112587842850,42799,1573333112548136983,imu,0.0,0.0,0.0,0.0,0.019422372982,0.0256622741238,0.0160449863465,1.06203064543,-0.150975906458,9.77576351815
1573333112603768248,42800,1573333112564136983,imu,0.0,0.0,0.0,0.0,0.0103703973495,0.0105461520052,-0.0155178969124,1.09538464685,0.0557208023834,9.69473291469
1573333112619875440,42801,1573333112580136983,imu,0.0,0.0,0.0,0.0,-0.00755797379284,-0.0101066780995,0.000644201026911,1.12864054828,-0.00784800033569,9.74211521671
1573333112635906036,42802,1573333112596136983,imu,0.0,0.0,0.0,0.0,-0.0123038730949,-0.0277715045248,0.00450905812253,1.23341135276,-0.117720005035,9.81598451987
1573333112651891021,42803,1573333112612136983,imu,0.0,0.0,0.0,0.0,-0.00536095333043,-0.0190708636707,-0.00187378548494,1.15296934932,0.14518800621,9.59614241047
1573333112667835147,42804,1573333112628136983,imu,0.0,0.0,0.0,0.0,-0.0047457247691,0.00105452793405,-0.00772971419123,1.38968465944,-0.132238805656,9.69904931487
1573333112683897842,42805,1573333112644136983,imu,0.0,0.0,0.0,0.0,-0.00096673787268,-0.00281224902374,-0.015108093604,1.16405464979,-0.029528101263,9.64421141253
1573333112699847496,42806,1573333112660136983,imu,0.0,0.0,0.0,0.0,-0.00738221913716,0.0101946426938,0.00169820536219,1.14492514897,-0.0381609016323,9.77429201809
1573333112715825866,42807,1573333112676136983,imu,0.0,0.0,0.0,0.0,-0.00123045712266,0.0516760575589,-0.00720262475713,1.51407546476,-0.156077106676,9.57505090957
1573333112731861994,42808,1573333112692136983,imu,0.0,0.0,0.0,0.0,-0.0456119110728,-0.0211800940717,-0.00638284360747,1.61011536887,0.206598608837,9.58162360985
1573333112747817877,42809,1573333112708136983,imu,0.0,0.0,0.0,0.0,-0.0442058738274,0.00773390298144,-0.00644148667034,1.89951038125,-0.00539550023079,9.56867440929
1573333112763765597,42810,1573333112724136983,imu,0.0,0.0,0.0,0.0,-0.0488636340022,0.0319020007326,-0.00667570985595,1.59863766838,0.0763218032646,9.64205321243
1573333112779850132,42811,1573333112740136983,imu,0.0,0.0,0.0,0.0,-0.0120401538449,0.0157313506799,-0.00199089707775,1.62541896953,-0.306660613117,10.1543314343
1573333112795840905,42812,1573333112756136983,imu,0.0,0.0,0.0,0.0,0.0108096967222,0.00615193654743,-0.00960349967617,1.32945125687,-0.0954513040829,9.82579452029
1573333112811832295,42813,1573333112772136983,imu,0.0,0.0,0.0,0.0,0.0107219066609,-0.000878773278379,-0.0135269998347,1.47110766293,0.113992204876,9.46478650485
1573333112827835713,42814,1573333112788136983,imu,0.0,0.0,0.0,0.0,-0.0106339420666,0.00298800367941,-0.00468463824528,1.5173127649,-0.0707301030254,10.0265071289
1573333112843807107,42815,1573333112804136983,imu,0.0,0.0,0.0,0.0,0.00527298873613,0.00351544217937,-0.00474328130814,1.30139465567,0.00843660036087,9.80195621927
1573333112859861187,42816,1573333112820136983,imu,0.0,0.0,0.0,0.0,0.00764593838714,0.00764593838714,-0.00884236158938,1.29776495551,-0.0241326010323,9.82706982035
1573333112875835102,42817,1573333112836136983,imu,0.0,0.0,0.0,0.0,-0.00913994022684,-0.0321657199826,0.000292866248485,1.32140705652,0.142735506105,9.48371980566
1573333112891851134,42818,1573333112852136983,imu,0.0,0.0,0.0,0.0,-0.00369119683504,-0.0161706500527,0.00931080796061,1.20535475156,-0.168437707205,9.67452431382
1573333112907784906,42819,1573333112868136983,imu,0.0,0.0,0.0,0.0,-0.0128311370619,-0.00571246264178,-0.016981879089,1.14531754899,0.0166770007133,9.96588132628
1573333112923856526,42820,1573333112884136983,imu,0.0,0.0,0.0,0.0,-0.00105452793405,0.0112491706279,-0.0238918121306,1.23959165302,-0.0717111030674,9.48636850577
1573333112939882606,42821,1573333112900136983,imu,0.0,0.0,0.0,0.0,0.037526673313,0.0352416882563,-0.0234818342893,1.14139354882,-0.0359046015358,9.56700670922
1573333112955903314,42822,1573333112916136983,imu,0.0,0.0,0.0,0.0,0.0439421545775,0.0047457247691,-0.0156350085052,1.59530226824,-0.326280613956,9.35962330035
1573333112971840429,42823,1573333112932136983,imu,0.0,0.0,0.0,0.0,-0.0154676314299,-0.0429754167048,-0.0261755754568,1.56950196713,-0.0265851011372,10.3863379443
1573333112987901560,42824,1573333112948136983,imu,0.0,0.0,0.0,0.0,-0.0597612953188,-0.0277715045248,-0.0130585534634,1.32435005665,0.237107710142,8.85950947896
1573333113003852627,42825,1573333112964136983,imu,0.0,0.0,0.0,0.0,-0.0215316033831,0.0481606153795,-0.0278151377561,1.39880795983,-0.289689312391,10.0435765296
1573333113019816759,42826,1573333112980136983,imu,0.0,0.0,0.0,0.0,-0.112316126156,-0.056421782328,-0.0349592939833,1.82338477799,0.117720005035,9.48244450561
1573333113035875009,42827,1573333112996136983,imu,0.0,0.0,0.0,0.0,-0.019422372982,-0.00439421545775,0.00152245070651,1.22369945234,-0.17324460741,9.42947050334
1573333113051907469,42828,1573333113012136983,imu,0.0,0.0,0.0,0.0,-0.0634524921538,0.0379659726857,0.0135854683646,0.768613532877,0.354042915144,10.5057256494
1573333113067902993,42829,1573333113028136983,imu,0.0,0.0,0.0,0.0,0.0476333514125,0.0205648655104,0.0299817894895,1.08263164631,-0.225433809643,10.1361829336
1573333113083884967,42830,1573333113044136983,imu,0.0,0.0,0.0,0.0,0.0353294783176,0.0410419409594,0.0172161022746,1.6505325706,-0.327457814007,9.17333139238
1573333113099879188,42831,1573333113060136983,imu,0.0,0.0,0.0,0.0,0.00834895700984,-0.00386695149072,0.018797196044,0.700335929956,0.0956475040913,9.62066741152
1573333113115858661,42832,1573333113076136983,imu,0.0,0.0,0.0,0.0,0.017049597864,0.0340991957279,-0.0134683567718,1.10970724747,-0.558679523897,10.5509497513
1573333113131832911,42833,1573333113092136983,imu,0.0,0.0,0.0,0.0,-0.0464028942898,0.0836658483529,-0.00316218753876,1.1783772504,0.524050222416,8.59365846759
1573333113147857092,42834,1573333113108136983,imu,0.0,0.0,0.0,0.0,-0.0581795034177,-0.0184556351094,0.0128827988077,0.914782539129,-0.261436511183,9.6762901139
1573333113163883814,42835,1573333113124136983,imu,0.0,0.0,0.0,0.0,0.0395479391197,-0.0575642748564,0.00345487925432,0.491382921019,-0.506686521673,10.6589578559
1573333113179946679,42836,1573333113140136983,imu,0.0,0.0,0.0,0.0,-0.000878773278379,0.00184551115106,-0.0361890529743,1.10529274728,0.212190309076,10.1320627334
1573333113195803714,42837,1573333113156136983,imu,0.0,0.0,0.0,0.0,-0.0459634203842,-0.0495668271579,-0.0107161470743,0.705240930166,0.326673013973,9.34785129985
1573333113211828892,42838,1573333113172136983,imu,0.0,0.0,0.0,0.0,0.0291775417702,-0.0201255661377,-0.00673417838589,1.3278816568,-0.419671817951,9.53630140791
1573333113227818002,42839,1573333113188136983,imu,0.0,0.0,0.0,0.0,-0.0502698457806,-0.0778654211168,-0.0215494057414,0.554559323721,0.258395411053,9.89534742327
1573333113243845831,42840,1573333113204136983,imu,0.0,0.0,0.0,0.0,0.00377898689642,-0.000175754655676,-0.000702669556853,0.43203241848,-0.223079409542,9.14743299128
1573333113259911543,42841,1573333113220136983,imu,0.0,0.0,0.0,0.0,0.00290021361804,-0.0265410474022,-0.011535928224,0.531015322714,-0.326280613956,10.8043420621
1573333113275920919,42842,1573333113236136983,imu,0.0,0.0,0.0,0.0,-0.0482484054409,-0.00580042723608,-0.0172747453375,1.08783094653,0.0979038041878,8.78613067582
