%time,field.header.seq,field.header.stamp,field.header.frame_id,field.child_frame_id,field.pose.pose.position.x,field.pose.pose.position.y,field.pose.pose.position.z,field.pose.pose.orientation.x,field.pose.pose.orientation.y,field.pose.pose.orientation.z,field.pose.pose.orientation.w,field.twist.twist.linear.x,field.twist.twist.linear.y,field.twist.twist.linear.z,field.twist.twist.angular.x,field.twist.twist.angular.y,field.twist.twist.angular.z
1573333107484880052,0,1573333107484880052,odom,vehicle,0.0,0.0,0.0,0.0,0.0,0.0,1.0,0.0,0.0,0.0,0.0,0.0,0.0
1573333107518880052,0,1573333107518880052,odom,vehicle,0.0,0.0,0.0,0.0,0.0,0.0,1.0,0.0,0.0,0.0,0.0,0.0,0.0
1573333107553880052,0,1573333107553880052,odom,vehicle,0.0,0.0,0.0,0.0,0.0,0.0,1.0,0.0,0.0,0.0,0.0,0.0,0.0
1573333107587880052,0,1573333107587880052,odom,vehicle,0.0,0.0,0.0,0.0,0.0,0.0,1.0,0.0,0.0,0.0,0.0,0.0,0.0
1573333107621880052,0,1573333107621880052,odom,vehicle,0.0,0.0,0.0,0.0,0.0,0.0,1.0,0.0,0.0,0.0,0.0,0.0,0.0
1573333107655880052,0,1573333107655880052,odom,vehicle,0.0,0.0,0.0,0.0,0.0,0.0,1.0,0.0,0.0,0.0,0.0,0.0,0.0
1573333107689880052,0,1573333107689880052,odom,vehicle,0.0,0.0,0.0,0.0,0.0,0.0,1.0,0.0,0.0,0.0,0.0,0.0,0.0
1573333107723880052,0,1573333107723880052,odom,vehicle,0.0,0.0,0.0,0.0,0.0,0.0,1.0,0.0,0.0,0.0,0.0,0.0,0.0
1573333107757880052,0,1573333107757880052,odom,vehicle,0.0,0.0,0.0,0.0,0.0,0.0,1.0,0.0,0.0,0.0,0.0,0.0,0.0
1573333107791880052,0,1573333107791880052,odom,vehicle,0.0,0.0,0.0,0.0,0.0,0.0,1.0,0.0,0.0,0.0,0.0,0.0,0.0
1573333107825880052,0,1573333107825880052,odom,vehicle,0.0,0.0,0.0,0.0,0.0,0.0,1.0,0.0,0.0,0.0,0.0,0.0,0.0
1573333107859880052,0,1573333107859880052,odom,vehicle,0.0,0.0,0.0,0.0,0.0,0.0,1.0,0.0,0.0,0.0,0.0,0.0,0.0
1573333107894880052,0,1573333107894880052,odom,vehicle,0.0,0.0,0.0,0.0,0.0,0.0,1.0,0.0,0.0,0.0,0.0,0.0,0.0
1573333107928880052,0,1573333107928880052,odom,vehicle,0.0,0.0,0.0,0.0,0.0,0.0,1.0,0.0,0.0,0.0,0.0,0.0,0.0
1573333107962880052,0,1573333107962880052,odom,vehicle,0.0,0.0,0.0,0.0,0.0,0.0,1.0,0.0,0.0,0.0,0.0,0.0,0.0
1573333107996880052,0,1573333107996880052,odom,vehicle,0.0,0.0,0.0,0.0,0.0,0.0,1.0,0.0,0.0,0.0,0.0,0.0,0.0
1573333108030880052,0,1573333108030880052,odom,vehicle,0.0,0.0,0.0,0.0,0.0,0.0,1.0,0.0,0.0,0.0,0.0,0.0,0.0
1573333108065880052,0,1573333108065880052,odom,vehicle,0.0,0.0,0.0,0.0,0.0,0.0,1.0,0.0,0.0,0.0,0.0,0.0,0.0
1573333108099880052,0,1573333108099880052,odom,vehicle,0.0,0.0,0.0,0.0,0.0,0.0,1.0,0.0,0.0,0.0,0.0,0.0,0.0
1573333108133880052,0,1573333108133880052,odom,vehicle,0.0,0.0,0.0,0.0,0.0,0.0,1.0,0.0,0.0,0.0,0.0,0.0,0.0
1573333108167880052,0,1573333108167880052,odom,vehicle,0.0,0.0,0.0,0.0,0.0,0.0,1.0,0.0,0.0,0.0,0.0,0.0,0.0
1573333108201880052,0,1573333108201880052,odom,vehicle,0.0,0.0,0.0,0.0,0.0,0.0,1.0,0.0,0.0,0.0,0.0,0.0,0.0
1573333108235880052,0,1573333108235880052,odom,vehicle,0.0,0.0,0.0,0.0,0.0,0.0,1.0,0.0,0.0,0.0,0.0,0.0,0.0
1573333108269880052,0,1573333108269880052,odom,vehicle,0.0,0.0,0.0,0.0,0.0,0.0,1.0,0.0,0.0,0.0,0.0,0.0,0.0
1573333108303880052,0,1573333108303880052,odom,vehicle,0.0,0.0,0.0,0.0,0.0,0.0,1.0,0.0,0.0,0.0,0.0,0.0,0.0
1573333108337880052,0,1573333108337880052,odom,vehicle,0.0,0.0,0.0,0.0,0.0,0.0,1.0,0.0,0.0,0.0,0.0,0.0,0.0
1573333108371880052,0,1573333108371880052,odom,vehicle,0.0,0.0,0.0,0.0,0.0,0.0,1.0,0.0,0.0,0.0,0.0,0.0,0.0
1573333108406880052,0,1573333108406880052,odom,vehicle,0.0,0.0,0.0,0.0,0.0,0.0,1.0,0.0,0.0,0.0,0.0,0.0,0.0
1573333108440880052,0,1573333108440880052,odom,vehicle,0.0,0.0,0.0,0.0,0.0,0.0,1.0,0.0,0.0,0.0,0.0,0.0,0.0
1573333108474880052,0,1573333108474880052,odom,vehicle,0.0,0.0,0.0,0.0,0.0,0.0,1.0,0.0,0.0,0.0,0.0,0.0,0.0
1573333108508880052,0,1573333108508880052,odom,vehicle,0.0,0.0,0.0,0.0,0.0,0.0,1.0,0.0,0.0,0.0,0.0,0.0,0.0
1573333108542880052,0,1573333108542880052,odom,vehicle,0.0,0.0,0.0,0.0,0.0,0.0,1.0,0.0,0.0,0.0,0.0,0.0,0.0
1573333108577880052,0,1573333108577880052,odom,vehicle,0.0,0.0,0.0,0.0,0.0,0.0,1.0,0.0,0.0,0.0,0.0,0.0,0.0
1573333108611880052,0,1573333108611880052,odom,vehicle,0.0,0.0,0.0,0.0,0.0,0.0,1.0,0.0,0.0,0.0,0.0,0.0,0.0
1573333108645880052,0,1573333108645880052,odom,vehicle,0.0,0.0,0.0,0.0,0.0,0.0,1.0,0.0,0.0,0.0,0.0,0.0,0.0
1573333108679880052,0,1573333108679880052,odom,vehicle,0.0,0.0,0.0,0.0,0.0,0.0,1.0,0.0,0.0,0.0,0.0,0.0,0.0
1573333108713880052,0,1573333108713880052,odom,vehicle,0.0,0.0,0.0,0.0,0.0,0.0,1.0,0.0,0.0,0.0,0.0,0.0,0.0
1573333108747880052,0,1573333108747880052,odom,vehicle,0.0,0.0,0.0,0.0,0.0,0.0,1.0,0.0,0.0,0.0,0.0,0.0,0.0
1573333108781880052,0,1573333108781880052,odom,vehicle,0.0,0.0,0.0,0.0,0.0,0.0,1.0,0.0,0.0,0.0,0.0,0.0,0.0
1573333108815880052,0,1573333108815880052,odom,vehicle,0.0,0.0,0.0,0.0,0.0,0.0,1.0,0.0,0.0,0.0,0.0,0.0,0.0
1573333108849880052,0,1573333108849880052,odom,vehicle,0.0,0.0,0.0,0.0,0.0,0.0,1.0,0.0,0.0,0.0,0.0,0.0,0.0
1573333108883880052,0,1573333108883880052,odom,vehicle,0.0,0.0,0.0,0.0,0.0,0.0,1.0,0.0,0.0,0.0,0.0,0.0,0.0
1573333108918880052,0,1573333108918880052,odom,vehicle,0.0,0.0,0.0,0.0,0.0,0.0,1.0,0.0,0.0,0.0,0.0,0.0,0.0
1573333108952880052,0,1573333108952880052,odom,vehicle,0.0,0.0,0.0,0.0,0.0,0.0,1.0,0.0,0.0,0.0,0.0,0.0,0.0
1573333108986880052,0,1573333108986880052,odom,vehicle,0.0,0.0,0.0,0.0,0.0,0.0,1.0,0.0,0.0,0.0,0.0,0.0,0.0
1573333109020880052,0,1573333109020880052,odom,vehicle,0.0,0.0,0.0,0.0,0.0,0.0,1.0,0.0,0.0,0.0,0.0,0.0,0.0
1573333109054880052,0,1573333109054880052,odom,vehicle,0.0,0.0,0.0,0.0,0.0,0.0,1.0,0.0,0.0,0.0,0.0,0.0,0.0
1573333109089880052,0,1573333109089880052,odom,vehicle,0.0,0.0,0.0,0.0,0.0,0.0,1.0,0.0,0.0,0.0,0.0,0.0,0.0
1573333109116314958,0,1573333109116314958,odom,vehicle,0.0,0.0,0.0,0.0,0.0,0.0,1.0,0.0,0.0,0.0,0.0,0.0,0.0
1573333109150314958,0,1573333109150314958,odom,vehicle,0.0,0.0,0.0,0.0,0.0,0.0,1.0,0.0,0.0,0.0,0.0,0.0,0.0
1573333109184314958,0,1573333109184314958,odom,vehicle,0.0,0.0,0.0,0.0,0.0,0.0,1.0,0.0,0.0,0.0,0.0,0.0,0.0
1573333109218314958,0,1573333109218314958,odom,vehicle,0.0,0.0,0.0,0.0,0.0,0.0,1.0,0.0,0.0,0.0,0.0,0.0,0.0
1573333109252314958,0,1573333109252314958,odom,vehicle,0.0,0.0,0.0,0.0,0.0,0.0,1.0,0.0,0.0,0.0,0.0,0.0,0.0
1573333109286314958,0,1573333109286314958,odom,vehicle,0.0,0.0,0.0,0.0,0.0,0.0,1.0,0.0,0.0,0.0,0.0,0.0,0.0
1573333109320314958,0,1573333109320314958,odom,vehicle,0.0,0.0,0.0,0.0,0.0,0.0,1.0,0.0,0.0,0.0,0.0,0.0,0.0
1573333109354314958,0,1573333109354314958,odom,vehicle,0.0,0.0,0.0,0.0,0.0,0.0,1.0,0.0,0.0,0.0,0.0,0.0,0.0
1573333109388314958,0,1573333109388314958,odom,vehicle,0.0,0.0,0.0,0.0,0.0,0.0,1.0,0.0,0.0,0.0,0.0,0.0,0.0
1573333109423314958,0,1573333109423314958,odom,vehicle,0.0,0.0,0.0,0.0,0.0,0.0,1.0,0.0,0.0,0.0,0.0,0.0,0.0
1573333109457314958,0,1573333109457314958,odom,vehicle,0.0,0.0,0.0,0.0,0.0,0.0,1.0,0.0,0.0,0.0,0.0,0.0,0.0
1573333109491314958,0,1573333109491314958,odom,vehicle,0.0,0.0,0.0,0.0,0.0,0.0,1.0,0.0,0.0,0.0,0.0,0.0,0.0
1573333109525314958,0,1573333109525314958,odom,vehicle,0.0,0.0,0.0,0.0,0.0,0.0,1.0,0.0,0.0,0.0,0.0,0.0,0.0
1573333109559314958,0,1573333109559314958,odom,vehicle,0.0,0.0,0.0,0.0,0.0,0.0,1.0,0.0,0.0,0.0,0.0,0.0,0.0
1573333109594314958,0,1573333109594314958,odom,vehicle,0.0,0.0,0.0,0.0,0.0,0.0,1.0,0.0,0.0,0.0,0.0,0.0,0.0
1573333109628314958,0,1573333109628314958,odom,vehicle,0.0,0.0,0.0,0.0,0.0,0.0,1.0,0.0,0.0,0.0,0.0,0.0,0.0
1573333109662314958,0,1573333109662314958,odom,vehicle,0.0,0.0,0.0,0.0,0.0,0.0,1.0,0.0,0.0,0.0,0.0,0.0,0.0
1573333109696314958,0,1573333109696314958,odom,vehicle,0.0,0.0,0.0,0.0,0.0,0.0,1.0,0.0,0.0,0.0,0.0,0.0,0.0
1573333109730314958,0,1573333109730314958,odom,vehicle,0.0,0.0,0.0,0.0,0.0,0.0,1.0,0.0,0.0,0.0,0.0,0.0,0.0
1573333109764314958,0,1573333109764314958,odom,vehicle,0.0,0.0,0.0,0.0,0.0,0.0,1.0,0.0,0.0,0.0,0.0,0.0,0.0
1573333109798314958,0,1573333109798314958,odom,vehicle,0.0,0.0,0.0,0.0,0.0,0.0,1.0,0.0,0.0,0.0,0.0,0.0,0.0
1573333109832314958,0,1573333109832314958,odom,vehicle,0.0,0.0,0.0,0.0,0.0,0.0,1.0,0.0,0.0,0.0,0.0,0.0,0.0
1573333109866314958,0,1573333109866314958,odom,vehicle,0.0,0.0,0.0,0.0,0.0,0.0,1.0,0.0,0.0,0.0,0.0,0.0,0.0
1573333109900314958,0,1573333109900314958,odom,vehicle,0.0,0.0,0.0,0.0,0.0,0.0,1.0,0.0,0.0,0.0,0.0,0.0,0.0
1573333109935314958,0,1573333109935314958,odom,vehicle,0.0,0.0,0.0,0.0,0.0,0.0,1.0,0.0,0.0,0.0,0.0,0.0,0.0
1573333109969314958,0,1573333109969314958,odom,vehicle,0.0,0.0,0.0,0.0,0.0,0.0,1.0,0.0,0.0,0.0,0.0,0.0,0.0
1573333110003314958,0,1573333110003314958,odom,vehicle,0.0,0.0,0.0,0.0,0.0,0.0,1.0,0.0,0.0,0.0,0.0,0.0,0.0
1573333110037314958,0,1573333110037314958,odom,vehicle,0.0,0.0,0.0,0.0,0.0,0.0,1.0,0.0,0.0,0.0,0.0,0.0,0.0
1573333110071314958,0,1573333110071314958,odom,vehicle,0.0,0.0,0.0,0.0,0.0,0.0,1.0,0.0,0.0,0.0,0.0,0.0,0.0
1573333110106314958,0,1573333110106314958,odom,vehicle,0.0,0.0,0.0,0.0,0.0,0.0,1.0,0.0,0.0,0.0,0.0,0.0,0.0
1573333110140314958,0,1573333110140314958,odom,vehicle,0.0,0.0,0.0,0.0,0.0,0.0,1.0,0.0,0.0,0.0,0.0,0.0,0.0
1573333110174314958,0,1573333110174314958,odom,vehicle,0.0,0.0,0.0,0.0,0.0,0.0,1.0,0.0,0.0,0.0,0.0,0.0,0.0
1573333110208314958,0,1573333110208314958,odom,vehicle,0.0,0.0,0.0,0.0,0.0,0.0,1.0,0.0,0.0,0.0,0.0,0.0,0.0
1573333110242314958,0,1573333110242314958,odom,vehicle,0.0,0.0,0.0,0.0,0.0,0.0,1.0,0.0,0.0,0.0,0.0,0.0,0.0
1573333110276314958,0,1573333110276314958,odom,vehicle,0.0,0.0,0.0,0.0,0.0,0.0,1.0,0.0,0.0,0.0,0.0,0.0,0.0
1573333110310314958,0,1573333110310314958,odom,vehicle,0.0,0.0,0.0,0.0,0.0,0.0,1.0,0.0,0.0,0.0,0.0,0.0,0.0
1573333110344314958,0,1573333110344314958,odom,vehicle,0.0,0.0,0.0,0.0,0.0,0.0,1.0,0.0,0.0,0.0,0.0,0.0,0.0
1573333110378314958,0,1573333110378314958,odom,vehicle,0.0,0.0,0.0,0.0,0.0,0.0,1.0,0.0,0.0,0.0,0.0,0.0,0.0
1573333110412314958,0,1573333110412314958,odom,vehicle,0.0,0.0,0.0,0.0,0.0,0.0,1.0,0.0,0.0,0.0,0.0,0.0,0.0
1573333110447314958,0,1573333110447314958,odom,vehicle,0.0,0.0,0.0,0.0,0.0,0.0,1.0,0.0,0.0,0.0,0.0,0.0,0.0
1573333110481314958,0,1573333110481314958,odom,vehicle,0.0,0.0,0.0,0.0,0.0,0.0,1.0,0.0,0.0,0.0,0.0,0.0,0.0
1573333110515314958,0,1573333110515314958,odom,vehicle,0.0,0.0,0.0,0.0,0.0,0.0,1.0,0.0,0.0,0.0,0.0,0.0,0.0
1573333110549314958,0,1573333110549314958,odom,vehicle,0.0,0.0,0.0,0.0,0.0,0.0,1.0,0.0,0.0,0.0,0.0,0.0,0.0
1573333110583314958,0,1573333110583314958,odom,vehicle,0.0,0.0,0.0,0.0,0.0,0.0,1.0,0.0,0.0,0.0,0.0,0.0,0.0
1573333110618314958,0,1573333110618314958,odom,vehicle,0.0,0.0,0.0,0.0,0.0,0.0,1.0,0.0,0.0,0.0,0.0,0.0,0.0
1573333110652314958,0,1573333110652314958,odom,vehicle,0.0,0.0,0.0,0.0,0.0,0.0,1.0,0.0,0.0,0.0,0.0,0.0,0.0
1573333110686314958,0,1573333110686314958,odom,vehicle,0.0,0.0,0.0,0.0,0.0,0.0,1.0,0.0,0.0,0.0,0.0,0.0,0.0
1573333110720314958,0,1573333110720314958,odom,vehicle,0.0,0.0,0.0,0.0,0.0,0.0,1.0,0.0,0.0,0.0,0.0,0.0,0.0
1573333110754314958,0,1573333110754314958,odom,vehicle,0.0,0.0,0.0,0.0,0.0,0.0,1.0,0.0,0.0,0.0,0.0,0.0,0.0
1573333110788314958,0,1573333110788314958,odom,vehicle,0.0,0.0,0.0,0.0,0.0,0.0,1.0,0.0,0.0,0.0,0.0,0.0,0.0
1573333110822314958,0,1573333110822314958,odom,vehicle,0.0,0.0,0.0,0.0,0.0,0.0,1.0,0.0,0.0,0.0,0.0,0.0,0.0
1573333110856314958,0,1573333110856314958,odom,vehicle,0.0,0.0,0.0,0.0,0.0,0.0,1.0,0.0,0.0,0.0,0.0,0.0,0.0
1573333110890314958,0,1573333110890314958,odom,vehicle,0.0,0.0,0.0,0.0,0.0,0.0,1.0,0.0,0.0,0.0,0.0,0.0,0.0
1573333110924314958,0,1573333110924314958,odom,vehicle,0.0,0.0,0.0,0.0,0.0,0.0,1.0,0.0,0.0,0.0,0.0,0.0,0.0
1573333110959314958,0,1573333110959314958,odom,vehicle,0.0,0.0,0.0,0.0,0.0,0.0,1.0,0.0,0.0,0.0,0.0,0.0,0.0
1573333110993314958,0,1573333110993314958,odom,vehicle,0.0,0.0,0.0,0.0,0.0,0.0,1.0,0.0,0.0,0.0,0.0,0.0,0.0
1573333111027314958,0,1573333111027314958,odom,vehicle,0.0,0.0,0.0,0.0,0.0,0.0,1.0,0.0,0.0,0.0,0.0,0.0,0.0
1573333111061314958,0,1573333111061314958,odom,vehicle,0.0,0.0,0.0,0.0,0.0,0.0,1.0,0.0,0.0,0.0,0.0,0.0,0.0
1573333111095314958,0,1573333111095314958,odom,vehicle,0.0,0.0,0.0,0.0,0.0,0.0,1.0,0.0,0.0,0.0,0.0,0.0,0.0
1573333111130314958,0,1573333111130314958,odom,vehicle,0.0,0.0,0.0,0.0,0.0,0.0,1.0,0.0,0.0,0.0,0.0,0.0,0.0
1573333111164314958,0,1573333111164314958,odom,vehicle,0.0,0.0,0.0,0.0,0.0,0.0,1.0,0.0,0.0,0.0,0.0,0.0,0.0
1573333111198314958,0,1573333111198314958,odom,vehicle,0.0,0.0,0.0,0.0,0.0,0.0,1.0,0.0,0.0,0.0,0.0,0.0,0.0
1573333111232314958,0,1573333111232314958,odom,vehicle,0.0,0.0,0.0,0.0,0.0,0.0,1.0,0.0,0.0,0.0,0.0,0.0,0.0
1573333111266314958,0,1573333111266314958,odom,vehicle,0.0,0.0,0.0,0.0,0.0,0.0,1.0,0.0,0.0,0.0,0.0,0.0,0.0
1573333111300314958,0,1573333111300314958,odom,vehicle,0.0,0.0,0.0,0.0,0.0,0.0,1.0,0.0,0.0,0.0,0.0,0.0,0.0
1573333111334314958,0,1573333111334314958,odom,vehicle,0.0,0.0,0.0,0.0,0.0,0.0,1.0,0.0,0.0,0.0,0.0,0.0,0.0
1573333111368314958,0,1573333111368314958,odom,vehicle,0.0,0.0,0.0,0.0,0.0,0.0,1.0,0.0,0.0,0.0,0.0,0.0,0.0
1573333111402314958,0,1573333111402314958,odom,vehicle,0.0,0.0,0.0,0.0,0.0,0.0,1.0,0.0,0.0,0.0,0.0,0.0,0.0
1573333111436314958,0,1573333111436314958,odom,vehicle,0.0,0.0,0.0,0.0,0.0,0.0,1.0,0.0,0.0,0.0,0.0,0.0,0.0
1573333111471314958,0,1573333111471314958,odom,vehicle,0.0,0.0,0.0,0.0,0.0,0.0,1.0,0.0,0.0,0.0,0.0,0.0,0.0
1573333111505314958,0,1573333111505314958,odom,vehicle,0.0,0.0,0.0,0.0,0.0,0.0,1.0,0.0,0.0,0.0,0.0,0.0,0.0
1573333111539314958,0,1573333111539314958,odom,vehicle,0.0,0.0,0.0,0.0,0.0,0.0,1.0,0.0,0.0,0.0,0.0,0.0,0.0
1573333111573314958,0,1573333111573314958,odom,vehicle,0.0,0.0,0.0,0.0,0.0,0.0,1.0,0.0,0.0,0.0,0.0,0.0,0.0
1573333111607314958,0,1573333111607314958,odom,vehicle,0.0,0.0,0.0,0.0,0.0,0.0,1.0,0.0,0.0,0.0,0.0,0.0,0.0
1573333111636835073,0,1573333111636835073,odom,vehicle,0.0,0.0,0.0,0.0,0.0,0.0,1.0,0.0,0.0,0.0,0.0,0.0,0.0
1573333111670835073,0,1573333111670835073,odom,vehicle,0.0,0.0,0.0,0.0,0.0,0.0,1.0,0.0,0.0,0.0,0.0,0.0,0.0
1573333111704835073,0,1573333111704835073,odom,vehicle,0.0,0.0,0.0,0.0,0.0,0.0,1.0,0.0,0.0,0.0,0.0,0.0,0.0
1573333111738835073,0,1573333111738835073,odom,vehicle,0.0,0.0,0.0,0.0,0.0,0.0,1.0,0.0,0.0,0.0,0.0,0.0,0.0
1573333111772835073,0,1573333111772835073,odom,vehicle,0.0,0.0,0.0,0.0,0.0,0.0,1.0,0.0,0.0,0.0,0.0,0.0,0.0
1573333111806835073,0,1573333111806835073,odom,vehicle,0.0,0.0,0.0,0.0,0.0,0.0,1.0,0.0,0.0,0.0,0.0,0.0,0.0
1573333111840835073,0,1573333111840835073,odom,vehicle,0.0,0.0,0.0,0.0,0.0,0.0,1.0,0.0,0.0,0.0,0.0,0.0,0.0
1573333111874835073,0,1573333111874835073,odom,vehicle,0.0,0.0,0.0,0.0,0.0,0.0,1.0,0.0,0.0,0.0,0.0,0.0,0.0
1573333111908835073,0,1573333111908835073,odom,vehicle,0.0,0.0,0.0,0.0,0.0,0.0,1.0,0.0,0.0,0.0,0.0,0.0,0.0
1573333111942835073,0,1573333111942835073,odom,vehicle,0.0,0.0,0.0,0.0,0.0,0.0,1.0,0.0,0.0,0.0,0.0,0.0,0.0
1573333111977835073,0,1573333111977835073,odom,vehicle,0.0,0.0,0.0,0.0,0.0,0.0,1.0,0.0,0.0,0.0,0.0,0.0,0.0
1573333112011835073,0,1573333112011835073,odom,vehicle,0.0,0.0,0.0,0.0,0.0,0.0,1.0,0.0,0.0,0.0,0.0,0.0,0.0
1573333112045835073,0,1573333112045835073,odom,vehicle,0.0,0.0,0.0,0.0,0.0,0.0,1.0,0.0,0.0,0.0,0.0,0.0,0.0
1573333112079835073,0,1573333112079835073,odom,vehicle,0.0,0.0,0.0,0.0,0.0,0.0,1.0,0.0,0.0,0.0,0.0,0.0,0.0
1573333112113835073,0,1573333112113835073,odom,vehicle,0.0,0.0,0.0,0.0,0.0,0.0,1.0,0.0,0.0,0.0,0.0,0.0,0.0
1573333112148835073,0,1573333112148835073,odom,vehicle,0.0,0.0,0.0,0.0,0.0,0.0,1.0,0.0,0.0,0.0,0.0,0.0,0.0
1573333112182835073,0,1573333112182835073,odom,vehicle,0.0,0.0,0.0,0.0,0.0,0.0,1.0,0.0,0.0,0.0,0.0,0.0,0.0
1573333112216835073,0,1573333112216835073,odom,vehicle,0.0,0.0,0.0,0.0,0.0,0.0,1.0,0.0,0.0,0.0,0.0,0.0,0.0
1573333112250835073,0,1573333112250835073,odom,vehicle,0.0,0.0,0.0,0.0,0.0,0.0,1.0,0.0,0.0,0.0,0.0,0.0,0.0
1573333112284835073,0,1573333112284835073,odom,vehicle,0.0,0.0,0.0,0.0,0.0,0.0,1.0,0.0,0.0,0.0,0.0,0.0,0.0
1573333112318835073,0,1573333112318835073,odom,vehicle,0.0,0.0,0.0,0.0,0.0,0.0,1.0,0.0,0.0,0.0,0.0,0.0,0.0
1573333112352835073,0,1573333112352835073,odom,vehicle,0.0,0.0,0.0,0.0,0.0,0.0,1.0,0.0,0.0,0.0,0.0,0.0,0.0
1573333112386835073,0,1573333112386835073,odom,vehicle,0.0,0.0,0.0,0.0,0.0,0.0,1.0,0.0,0.0,0.0,0.0,0.0,0.0
1573333112420835073,0,1573333112420835073,odom,vehicle,0.0,0.0,0.0,0.0,0.0,0.0,1.0,0.0,0.0,0.0,0.0,0.0,0.0
1573333112454835073,0,1573333112454835073,odom,vehicle,0.0,0.0,0.0,0.0,0.0,0.0,1.0,0.0,0.0,0.0,0.0,0.0,0.0
1573333112489835073,0,1573333112489835073,odom,vehicle,0.00506388051587,-2.76120228757e-05,0.0,-0.0,-0.0,-0.00545265874913,0.999985134146,0.144685799048,0.0,0.0,0.0,0.0,-0.311583402325
1573333112523835073,0,1573333112523835073,odom,vehicle,0.0130210117422,-0.000113151520516,0.0,-0.0,-0.0,-0.00529691773302,0.999985971233,0.234045705001,0.0,0.0,0.0,0.0,0.00916132592334
1573333112557835073,0,1573333112557835073,odom,vehicle,0.0170715473525,-0.000177523306087,0.0,-0.0,-0.0,-0.0105936879396,0.999943885313,0.11914928148,0.0,0.0,0.0,0.0,-0.311585651492
1573333112591835073,0,1573333112591835073,odom,vehicle,0.0180840237981,-0.000204344728495,0.0,-0.0,-0.0,-0.0158901609134,0.999873743423,0.0297893755275,0.0,0.0,0.0,0.0,-0.311585651492
1573333112625835073,0,1573333112625835073,odom,vehicle,0.0211194044689,-0.000333521392221,0.0,-0.0,-0.0,-0.0266373451145,0.999645162968,0.0893580140836,0.0,0.0,0.0,0.0,-0.632330379741
1573333112660835073,0,1573333112660835073,odom,vehicle,0.0252538467181,-0.000554682168715,0.0,-0.0,-0.0,-0.026797649734,0.9996408785,0.118296322575,0.0,0.0,0.0,0.0,-0.00916357509047
1573333112694835073,0,1573333112694835073,odom,vehicle,0.030280141218,-0.000852638265339,0.0,-0.0,-0.0,-0.0324036520341,0.999474863783,0.14809179552,0.0,0.0,0.0,0.0,-0.329908303339
1573333112728835073,0,1573333112728835073,odom,vehicle,0.0383654907028,-0.00137871946154,0.0,-0.0,-0.0,-0.0325593120284,0.999469805047,0.238307809601,0.0,0.0,0.0,0.0,-0.00916132592334
1573333112762835073,0,1573333112762835073,odom,vehicle,0.0464507042772,-0.00190732094534,0.0,-0.0,-0.0,-0.0327149712329,0.999464722067,0.238308645144,0.0,0.0,0.0,0.0,-0.00916132592334
1573333112796835073,0,1573333112796835073,odom,vehicle,0.054538519201,-0.00239434735569,0.0,-0.0,-0.0,-0.0274204298723,0.999623989321,0.238307809601,0.0,0.0,0.0,0.0,0.311583402325
1573333112830835073,0,1573333112830835073,odom,vehicle,0.0646513001986,-0.00294956734447,0.0,-0.0,-0.0,-0.0274204298723,0.999623989321,0.297883381118,0.0,0.0,0.0,0.0,5.55111512313e-17
1573333112864835073,0,1573333112864835073,odom,vehicle,0.07779789519,-0.00367135221506,0.0,-0.0,-0.0,-0.0274204298723,0.999623989321,0.387247797336,0.0,0.0,0.0,0.0,5.55111512313e-17
1573333112898835073,0,1573333112898835073,odom,vehicle,0.0919559071107,-0.00444866670666,0.0,-0.0,-0.0,-0.0274204298723,0.999623989321,0.417037300426,0.0,0.0,0.0,0.0,5.55111512313e-17
1573333112932835073,0,1573333112932835073,odom,vehicle,0.107124993908,-0.0052814920396,0.0,-0.0,-0.0,-0.0274204298723,0.999623989321,0.446822576763,0.0,0.0,0.0,0.0,5.55111512313e-17
1573333112966835073,0,1573333112966835073,odom,vehicle,0.123304961507,-0.00616981755865,0.0,-0.0,-0.0,-0.0274204298723,0.999623989321,0.476599212021,0.0,0.0,0.0,0.0,5.55111512313e-17
1573333113001835073,0,1573333113001835073,odom,vehicle,0.141745332203,-0.00718224553603,0.0,-0.0,-0.0,-0.0274204298723,0.999623989321,0.527659915984,0.0,0.0,0.0,0.0,5.55111512313e-17
1573333113035835073,0,1573333113035835073,odom,vehicle,0.161681375666,-0.00827679013566,0.0,-0.0,-0.0,-0.0274204298723,0.999623989321,0.587238667039,0.0,0.0,0.0,0.0,5.55111512313e-17
1573333113069835073,0,1573333113069835073,odom,vehicle,0.183928729418,-0.00949823214094,0.0,-0.0,-0.0,-0.0274204298723,0.999623989321,0.655316325651,0.0,0.0,0.0,0.0,5.55111512313e-17
1573333113103835073,0,1573333113103835073,odom,vehicle,0.207179858605,-0.0109019868285,0.0,-0.0,-0.0,-0.0328706307354,0.999459614809,0.685106936006,0.0,0.0,0.0,0.0,-0.320746977416
1573333113137835073,0,1573333113137835073,odom,vehicle,0.229412540477,-0.0123659651449,0.0,-0.0,-0.0,-0.0328706307354,0.999459614809,0.655320066976,0.0,0.0,0.0,0.0,5.55111512313e-17
1573333113172835073,0,1573333113172835073,odom,vehicle,0.252982870913,-0.013918024985,0.0,-0.0,-0.0,-0.0328706307354,0.999459614809,0.674894779405,0.0,0.0,0.0,0.0,5.55111512313e-17
1573333113206835073,0,1573333113206835073,odom,vehicle,0.278911960012,-0.0156254044378,0.0,-0.0,-0.0,-0.0328706307354,0.999459614809,0.764273626706,0.0,0.0,0.0,0.0,5.55111512313e-17
1573333113240835073,0,1573333113240835073,odom,vehicle,0.305187695557,-0.0173556098763,0.0,-0.0,-0.0,-0.0328706307354,0.999459614809,0.774485783232,0.0,0.0,0.0,0.0,5.55111512313e-17
1573333113274835073,0,1573333113274835073,odom,vehicle,0.329450179102,-0.018820423681,0.0,-0.0,-0.0,-0.0274204298723,0.999623989321,0.714907032177,0.0,0.0,0.0,0.0,0.320746977416
1573333113308835073,0,1573333113308835073,odom,vehicle,0.355743291476,-0.0202639891612,0.0,-0.0,-0.0,-0.0274204298723,0.999623989321,0.774493308608,0.0,0.0,0.0,0.0,5.55111512313e-17
1573333113342835073,0,1573333113342835073,odom,vehicle,0.384059129768,-0.0218186079572,0.0,-0.0,-0.0,-0.0274204298723,0.999623989321,0.834069135308,0.0,0.0,0.0,0.0,5.55111512313e-17
1573333113376835073,0,1573333113376835073,odom,vehicle,0.412374398402,-0.0233731954775,0.0,-0.0,-0.0,-0.0274204298723,0.999623989321,0.834058204186,0.0,0.0,0.0,0.0,5.55111512313e-17
1573333113410835073,0,1573333113410835073,odom,vehicle,0.440690044639,-0.0249278037291,0.0,-0.0,-0.0,-0.0274204298723,0.999623989321,0.834069326883,0.0,0.0,0.0,0.0,5.55111512313e-17
1573333113444835073,0,1573333113444835073,odom,vehicle,0.471028416794,-0.0265934652965,0.0,-0.0,-0.0,-0.0274204298723,0.999623989321,0.893644735841,0.0,0.0,0.0,0.0,5.55111512313e-17
1573333113478835073,0,1573333113478835073,odom,vehicle,0.501366097168,-0.0282590888833,0.0,-0.0,-0.0,-0.0274204298723,0.999623989321,0.893630625182,0.0,0.0,0.0,0.0,5.55111512313e-17
1573333113513835073,0,1573333113513835073,odom,vehicle,0.530097934677,-0.0298365472009,0.0,-0.0,-0.0,-0.0274204298723,0.999623989321,0.822143937118,0.0,0.0,0.0,0.0,5.55111512313e-17
1573333113547835073,0,1573333113547835073,odom,vehicle,0.560030869699,-0.0314799491347,0.0,-0.0,-0.0,-0.0274204298723,0.999623989321,0.881708393881,0.0,0.0,0.0,0.0,5.55111512313e-17
1573333113581835073,0,1573333113581835073,odom,vehicle,0.592390804897,-0.0332566001728,0.0,-0.0,-0.0,-0.0274204298723,0.999623989321,0.953198424042,0.0,0.0,0.0,0.0,5.55111512313e-17
1573333113615835073,0,1573333113615835073,odom,vehicle,0.624751709928,-0.0350333044574,0.0,-0.0,-0.0,-0.0274204298723,0.999623989321,0.953220307282,0.0,0.0,0.0,0.0,5.55111512313e-17
1573333113649835073,0,1573333113649835073,odom,vehicle,0.657112388035,-0.0368099962834,0.0,-0.0,-0.0,-0.0274204298723,0.999623989321,0.953220307282,0.0,0.0,0.0,0.0,5.55111512313e-17
1573333113684835073,0,1573333113684835073,odom,vehicle,0.689948663673,-0.0386127997452,0.0,-0.0,-0.0,-0.0274204298723,0.999623989321,0.939596321396,0.0,0.0,0.0,0.0,5.55111512313e-17
1573333113718835073,0,1573333113718835073,odom,vehicle,0.72184644886,-0.0403640774539,0.0,-0.0,-0.0,-0.0274204298723,0.999623989321,0.939578685108,0.0,0.0,0.0,0.0,5.55111512313e-17
1573333113752835073,0,1573333113752835073,odom,vehicle,0.754205785328,-0.04214069562,0.0,-0.0,-0.0,-0.0274204298723,0.999623989321,0.953180787754,0.0,0.0,0.0,0.0,5.55111512313e-17
1573333113786835073,0,1573333113786835073,odom,vehicle,0.786565235252,-0.0439173200152,0.0,-0.0,-0.0,-0.0274204298723,0.999623989321,0.95318412975,0.0,0.0,0.0,0.0,5.55111512313e-17
1573333113820835073,0,1573333113820835073,odom,vehicle,0.818924199191,-0.0456939177285,0.0,-0.0,-0.0,-0.0274204298723,0.999623989321,0.953163130618,0.0,0.0,0.0,0.0,5.55111512313e-17
1573333113854835073,0,1573333113854835073,odom,vehicle,0.853303599515,-0.0475814430558,0.0,-0.0,-0.0,-0.0274204298723,0.999623989321,1.01268404923,0.0,0.0,0.0,0.0,5.55111512313e-17
1573333113888835073,0,1573333113888835073,odom,vehicle,0.888681717084,-0.0497173478532,0.0,-0.0,-0.0,-0.0328706307354,0.999459614809,1.04242781381,0.0,0.0,0.0,0.0,-0.320744728249
1573333113922835073,0,1573333113922835073,odom,vehicle,0.923027781303,-0.0519789672223,0.0,-0.0,-0.0,-0.0328705925203,0.999459616066,1.0123684213,0.0,0.0,0.0,0.0,2.24916713359e-06
1573333113956835073,0,1573333113956835073,odom,vehicle,0.9563466947,-0.0541729482131,0.0,-0.0,-0.0,-0.0328705543053,0.999459617323,0.982092602247,0.0,0.0,0.0,0.0,2.24916713359e-06
1573333113990835073,0,1573333113990835073,odom,vehicle,0.988635322103,-0.0562990845391,0.0,-0.0,-0.0,-0.0328705160899,0.99945961858,0.951717698885,0.0,0.0,0.0,0.0,2.24916713359e-06
1573333114025835073,0,1573333114025835073,odom,vehicle,1.02337232299,-0.0585864382603,0.0,-0.0,-0.0,-0.0328704767509,0.999459619874,0.994639421874,0.0,0.0,0.0,0.0,2.24916713359e-06
1573333114059835073,0,1573333114059835073,odom,vehicle,1.05901828519,-0.0607385027816,0.0,-0.0,-0.0,-0.0274202758625,0.999623993545,1.05032728897,0.0,0.0,0.0,0.0,0.320746977416
1573333114093835073,0,1573333114093835073,odom,vehicle,1.09300048799,-0.06260421035,0.0,-0.0,-0.0,-0.0274202758625,0.999623993545,1.00097711155,0.0,0.0,0.0,0.0,5.55111512313e-17
1573333114122007097,0,1573333114122007097,odom,vehicle,1.12306779528,-0.0644194730416,0.0,-0.0,-0.0,-0.0328704767509,0.999459619874,1.06922427078,0.0,0.0,0.0,0.0,-0.387099435194
1573333114156007097,0,1573333114156007097,odom,vehicle,1.15916732639,-0.0670352410944,0.0,-0.0,-0.0,-0.0394468363776,0.999221670652,1.06454478506,0.0,0.0,0.0,0.0,-0.387099435194
1573333114191007097,0,1573333114191007097,odom,vehicle,1.19300076582,-0.0699414910637,0.0,-0.0,-0.0,-0.0462148636161,0.998931522368,0.970234516646,0.0,0.0,0.0,0.0,-0.387099435194
1573333114225007097,0,1573333114225007097,odom,vehicle,1.2255733501,-0.0735373058913,0.0,-0.0,-0.0,-0.0636742712786,0.99797073463,0.963888485954,0.0,0.0,0.0,0.0,-1.02859339002
1573333114259007097,0,1573333114259007097,odom,vehicle,1.25619227975,-0.0778355793708,0.0,-0.0,-0.0,-0.0756784354896,0.997132275278,0.909404559598,0.0,0.0,0.0,0.0,-0.707848661776
1573333114293007097,0,1573333114293007097,odom,vehicle,1.28753973902,-0.0829718682585,0.0,-0.0,-0.0,-0.0865478559147,0.99624769442,0.934299056062,0.0,0.0,0.0,0.0,-0.641496203999
1573333114327007097,0,1573333114327007097,odom,vehicle,1.31974904104,-0.0889734442677,0.0,-0.0,-0.0,-0.0974069834817,0.995244633027,0.963658715002,0.0,0.0,0.0,0.0,-0.641496203999
1573333114361007097,0,1573333114361007097,odom,vehicle,1.34978884227,-0.0954227424186,0.0,-0.0,-0.0,-0.113673608051,0.993518148215,0.903692213795,0.0,0.0,0.0,0.0,-0.962240932247
1573333114395007097,0,1573333114395007097,odom,vehicle,1.37960855459,-0.102852933649,0.0,-0.0,-0.0,-0.129909701665,0.991525828919,0.903909079818,0.0,0.0,0.0,0.0,-0.962240932247
1573333114429007097,0,1573333114429007097,odom,vehicle,1.41101575458,-0.112150700289,0.0,-0.0,-0.0,-0.156890431476,0.98761601471,0.963490800685,0.0,0.0,0.0,0.0,-1.60373263791
1573333114463007097,0,1573333114463007097,odom,vehicle,1.44102554667,-0.122478134222,0.0,-0.0,-0.0,-0.173024312956,0.984917553466,0.933481400876,0.0,0.0,0.0,0.0,-0.962240932247
1573333114497007097,0,1573333114497007097,odom,vehicle,1.47046165959,-0.134067091079,0.0,-0.0,-0.0,-0.199808916164,0.979834882529,0.930565822448,0.0,0.0,0.0,0.0,-1.60373488708
1573333114532007097,0,1573333114532007097,odom,vehicle,1.49881989678,-0.147080694554,0.0,-0.0,-0.0,-0.227069788585,0.973878488884,0.891595550589,0.0,0.0,0.0,0.0,-1.59457356116
1573333114566007097,0,1573333114566007097,odom,vehicle,1.52660774041,-0.161539957409,0.0,-0.0,-0.0,-0.248104351107,0.968733312611,0.921381350075,0.0,0.0,0.0,0.0,-1.27382433457
1573333114600007097,0,1573333114600007097,odom,vehicle,1.55490385349,-0.177857944522,0.0,-0.0,-0.0,-0.269022424878,0.963133913282,0.960787658075,0.0,0.0,0.0,0.0,-1.27382433457
1573333114634007097,0,1573333114634007097,odom,vehicle,1.57980907191,-0.194079696207,0.0,-0.0,-0.0,-0.300234398065,0.953865454988,0.874335716149,0.0,0.0,0.0,0.0,-1.91531379107
1573333114668007097,0,1573333114668007097,odom,vehicle,1.60222305529,-0.210663060992,0.0,-0.0,-0.0,-0.325977905505,0.945377387673,0.820155244068,0.0,0.0,0.0,0.0,-1.59456681365
1573333114703007097,0,1573333114703007097,odom,vehicle,1.62627084538,-0.230591427679,0.0,-0.0,-0.0,-0.352228138989,0.935914172403,0.892461735259,0.0,0.0,0.0,0.0,-1.59456681365
1573333114737007097,0,1573333114737007097,odom,vehicle,1.64920238606,-0.251826622428,0.0,-0.0,-0.0,-0.377466164501,0.92602337695,0.919332562546,0.0,0.0,0.0,0.0,-1.59456681365
1573333114771007097,0,1573333114771007097,odom,vehicle,1.66923673164,-0.272505364672,0.0,-0.0,-0.0,-0.402426659232,0.915452229196,0.846932370376,0.0,0.0,0.0,0.0,-1.59456681365
1573333114805007097,0,1573333114805007097,odom,vehicle,1.68812973424,-0.294249308115,0.0,-0.0,-0.0,-0.427091495302,0.904208413277,0.847320120528,0.0,0.0,0.0,0.0,-1.59456906282
1573333114839007097,0,1573333114839007097,odom,vehicle,1.70656949089,-0.317687938104,0.0,-0.0,-0.0,-0.446570530405,0.894748434687,0.877202988143,0.0,0.0,0.0,0.0,-1.27382208541
1573333114873007097,0,1573333114873007097,odom,vehicle,1.72397323214,-0.34190547953,0.0,-0.0,-0.0,-0.465977863093,0.884796378331,0.877202988143,0.0,0.0,0.0,0.0,-1.2829856605
1573333114907007097,0,1573333114907007097,odom,vehicle,1.73857759029,-0.364488271086,0.0,-0.0,-0.0,-0.489924289265,0.871764985984,0.79109030149,0.0,0.0,0.0,0.0,-1.60373488708
1573333114941007097,0,1573333114941007097,odom,vehicle,1.75256480942,-0.388637772625,0.0,-0.0,-0.0,-0.508820229632,0.860872797757,0.820876495615,0.0,0.0,0.0,0.0,-1.28298790966
1573333114975007097,0,1573333114975007097,odom,vehicle,1.76637816921,-0.415083018357,0.0,-0.0,-0.0,-0.527473996147,0.849571176176,0.877587765785,0.0,0.0,0.0,0.0,-1.28298790966
1573333115009007097,0,1573333115009007097,odom,vehicle,1.77777868925,-0.43944216133,0.0,-0.0,-0.0,-0.545876976885,0.837865338886,0.791087726654,0.0,0.0,0.0,0.0,-1.28298790966
1573333115044007097,0,1573333115044007097,odom,vehicle,1.7878838227,-0.463773771433,0.0,-0.0,-0.0,-0.564417356102,0.825489580874,0.752824350611,0.0,0.0,0.0,0.0,-1.27382433457
1573333115078007097,0,1573333115078007097,odom,vehicle,1.79745416298,-0.489579308504,0.0,-0.0,-0.0,-0.57771749965,0.816236785864,0.809538195616,0.0,0.0,0.0,0.0,-0.953077357157
1573333115112007097,0,1573333115112007097,odom,vehicle,1.80616452421,-0.516104896274,0.0,-0.0,-0.0,-0.595256335264,0.803535870592,0.82121091398,0.0,0.0,0.0,0.0,-1.27382208541
1573333115146007097,0,1573333115146007097,odom,vehicle,1.8133331338,-0.541088574017,0.0,-0.0,-0.0,-0.608196716192,0.793786340531,0.76449964381,0.0,0.0,0.0,0.0,-0.953075107989
1573333115180007097,0,1573333115180007097,odom,vehicle,1.81976706969,-0.567202562056,0.0,-0.0,-0.0,-0.625242158968,0.780430805805,0.79109030149,0.0,0.0,0.0,0.0,-1.27382208541
1573333115215007097,0,1573333115215007097,odom,vehicle,1.82532958655,-0.59498259938,0.0,-0.0,-0.0,-0.642482662707,0.766300220619,0.809535568676,0.0,0.0,0.0,0.0,-1.27381996292
1573333115249007097,0,1573333115249007097,odom,vehicle,1.82940744866,-0.621309168806,0.0,-0.0,-0.0,-0.658924876372,0.752208752474,0.783607745012,0.0,0.0,0.0,0.0,-1.27381996292
1573333115283007097,0,1573333115283007097,odom,vehicle,1.83216839332,-0.646224200059,0.0,-0.0,-0.0,-0.675058221739,0.737764459202,0.737334802887,0.0,0.0,0.0,0.0,-1.27381996292
1573333115317007097,0,1573333115317007097,odom,vehicle,1.83377049753,-0.672198837513,0.0,-0.0,-0.0,-0.69480676916,0.719196463791,0.765507289758,0.0,0.0,0.0,0.0,-1.59456694033
1573333115351007097,0,1573333115351007097,odom,vehicle,1.83410575698,-0.698309866033,0.0,-0.0,-0.0,-0.710216768147,0.703983055366,0.768096567459,0.0,0.0,0.0,0.0,-1.27381996292
1573333115385007097,0,1573333115385007097,odom,vehicle,1.83333444055,-0.72348647774,0.0,-0.0,-0.0,-0.725401075609,0.688326433827,0.740891292416,0.0,0.0,0.0,0.0,-1.28298341133
1573333115419007097,0,1573333115419007097,odom,vehicle,1.83153933555,-0.749538667848,0.0,-0.0,-0.0,-0.736563153551,0.676368775765,0.768093769959,0.0,0.0,0.0,0.0,-0.962236433913
1573333115453007097,0,1573333115453007097,odom,vehicle,1.82889191462,-0.77552904804,0.0,-0.0,-0.0,-0.747528169112,0.664230108008,0.768414534195,0.0,0.0,0.0,0.0,-0.96223868308
1573333115487007097,0,1573333115487007097,odom,vehicle,1.82553411824,-0.801459688544,0.0,-0.0,-0.0,-0.754727276484,0.656038671216,0.769045182647,0.0,0.0,0.0,0.0,-0.641491705664
1573333115521007097,0,1573333115521007097,odom,vehicle,1.82149131731,-0.826275903228,0.0,-0.0,-0.0,-0.768855300527,0.639422807578,0.739571081882,0.0,0.0,0.0,0.0,-1.2829856605
1573333115556007097,0,1573333115556007097,odom,vehicle,1.81635316283,-0.852333311806,0.0,-0.0,-0.0,-0.776086134881,0.630626919221,0.758847783785,0.0,0.0,0.0,0.0,-0.65065965241
1573333115590007097,0,1573333115590007097,odom,vehicle,1.81051136662,-0.877504969074,0.0,-0.0,-0.0,-0.789750489845,0.613428205897,0.760081874677,0.0,0.0,0.0,0.0,-1.29215360724
1573333115624007097,0,1573333115624007097,odom,vehicle,1.80411278839,-0.900941512627,0.0,-0.0,-0.0,-0.7997724222,0.600303317239,0.714572617402,0.0,0.0,0.0,0.0,-0.971406629826
1573333115658007097,0,1573333115658007097,odom,vehicle,1.79650728975,-0.925099308828,0.0,-0.0,-0.0,-0.812765078548,0.582591561123,0.744959959975,0.0,0.0,0.0,0.0,-1.29215135807
1573333115692007097,0,1573333115692007097,odom,vehicle,1.78730608734,-0.950825392781,0.0,-0.0,-0.0,-0.822274641768,0.569090865771,0.803627642864,0.0,0.0,0.0,0.0,-0.971404380659
1573333115727007097,0,1573333115727007097,odom,vehicle,1.77644461237,-0.97740728984,0.0,-0.0,-0.0,-0.837832928599,0.545926720133,0.820541834583,0.0,0.0,0.0,0.0,-1.59456694033
1573333115761007097,0,1573333115761007097,odom,vehicle,1.76516709758,-1.00186754204,0.0,-0.0,-0.0,-0.846567788993,0.532280920792,0.792238071211,0.0,0.0,0.0,0.0,-0.953072985501
1573333115795007097,0,1573333115795007097,odom,vehicle,1.75377924253,-1.0245997199,0.0,-0.0,-0.0,-0.855080420581,0.518495394714,0.747831217122,0.0,0.0,0.0,0.0,-0.953072985501
1573333115829007097,0,1573333115829007097,odom,vehicle,1.74163378036,-1.04700097402,0.0,-0.0,-0.0,-0.863368646074,0.504573662587,0.749497647653,0.0,0.0,0.0,0.0,-0.953072985501
1573333115863007097,0,1573333115863007097,odom,vehicle,1.72889353722,-1.06905901611,0.0,-0.0,-0.0,-0.86874258313,0.495263893552,0.749220510379,0.0,0.0,0.0,0.0,-0.632326008085
1573333115897007097,0,1573333115897007097,odom,vehicle,1.71518384265,-1.09165142852,0.0,-0.0,-0.0,-0.874091836252,0.485760704254,0.777274428169,0.0,0.0,0.0,0.0,-0.641491705664
1573333115931007097,0,1573333115931007097,odom,vehicle,1.70049221057,-1.11471250582,0.0,-0.0,-0.0,-0.879337174317,0.476199678563,0.804227592702,0.0,0.0,0.0,0.0,-0.641491705664
1573333115965007097,0,1573333115965007097,odom,vehicle,1.6861840694,-1.13562884005,0.0,-0.0,-0.0,-0.889513456437,0.456908974324,0.745413202251,0.0,0.0,0.0,0.0,-1.2829856605
1573333115999007097,0,1573333115999007097,odom,vehicle,1.67094867665,-1.15593966225,0.0,-0.0,-0.0,-0.899266624414,0.43740088959,0.74682254261,0.0,0.0,0.0,0.0,-1.28298790966
1573333116033007097,0,1573333116033007097,odom,vehicle,1.65429015907,-1.17623932213,0.0,-0.0,-0.0,-0.908592084443,0.417684598815,0.772407672075,0.0,0.0,0.0,0.0,-1.28298790966
1573333116068007097,0,1573333116068007097,odom,vehicle,1.63537190767,-1.19755658233,0.0,-0.0,-0.0,-0.91549638704,0.40232619268,0.814365753715,0.0,0.0,0.0,0.0,-0.962240932247
1573333116102007097,0,1573333116102007097,odom,vehicle,1.61675461827,-1.21675825808,0.0,-0.0,-0.0,-0.926123642382,0.377220093606,0.786718475419,0.0,0.0,0.0,0.0,-1.60373038874
1573333116136007097,0,1573333116136007097,odom,vehicle,1.59914894849,-1.23339893416,0.0,-0.0,-0.0,-0.932170021301,0.362020788613,0.712546255066,0.0,0.0,0.0,0.0,-0.962236433913
1573333116170007097,0,1573333116170007097,odom,vehicle,1.57956992074,-1.25072797716,0.0,-0.0,-0.0,-0.93796697243,0.346724614977,0.769047775695,0.0,0.0,0.0,0.0,-0.962236433913
1573333116204007097,0,1573333116204007097,odom,vehicle,1.55873881781,-1.26798361443,0.0,-0.0,-0.0,-0.943512982642,0.331335557383,0.795614232379,0.0,0.0,0.0,0.0,-0.962236433913
1573333116239007097,0,1573333116239007097,odom,vehicle,1.53695999906,-1.28464833084,0.0,-0.0,-0.0,-0.95066400381,0.310222423206,0.783587175949,0.0,0.0,0.0,0.0,-1.27381983624
1573333116273007097,0,1573333116273007097,odom,vehicle,1.51436762245,-1.30059550746,0.0,-0.0,-0.0,-0.955565337252,0.294779385716,0.813376342585,0.0,0.0,0.0,0.0,-0.953075107989
1573333116307007097,0,1573333116307007097,odom,vehicle,1.49178401358,-1.31546421127,0.0,-0.0,-0.0,-0.960215793054,0.279259074643,0.795296056751,0.0,0.0,0.0,0.0,-0.953075107989
1573333116341007097,0,1573333116341007097,odom,vehicle,1.46779884344,-1.3299851362,0.0,-0.0,-0.0,-0.966037523627,0.258401824575,0.824721955928,0.0,0.0,0.0,0.0,-1.27382208541
1573333116375007097,0,1573333116375007097,odom,vehicle,1.44403494196,-1.34300075513,0.0,-0.0,-0.0,-0.971406298424,0.237423257879,0.796965089775,0.0,0.0,0.0,0.0,-1.27382208541
1573333116409007097,0,1573333116409007097,odom,vehicle,1.42150487289,-1.35409637921,0.0,-0.0,-0.0,-0.976353213316,0.216181411893,0.738709644032,0.0,0.0,0.0,0.0,-1.2829856605
1573333116443007097,0,1573333116443007097,odom,vehicle,1.39510647679,-1.36569547418,0.0,-0.0,-0.0,-0.980835696161,0.194836693504,0.848135594691,0.0,0.0,0.0,0.0,-1.28298790966
1573333116477007097,0,1573333116477007097,odom,vehicle,1.36902845251,-1.37565802146,0.0,-0.0,-0.0,-0.985782477825,0.168026505093,0.821163385522,0.0,0.0,0.0,0.0,-1.60373263791
1573333116511007097,0,1573333116511007097,odom,vehicle,1.3452259897,-1.38358017483,0.0,-0.0,-0.0,-0.988399048765,0.151879295499,0.737864243742,0.0,0.0,0.0,0.0,-0.96223868308
1573333116545007097,0,1573333116545007097,odom,vehicle,1.32129080745,-1.39068575802,0.0,-0.0,-0.0,-0.990751145052,0.135691446222,0.734376371554,0.0,0.0,0.0,0.0,-0.96223868308
1573333116580007097,0,1573333116580007097,odom,vehicle,1.29390707084,-1.39768063296,0.0,-0.0,-0.0,-0.993511328912,0.113733193589,0.807578298973,0.0,0.0,0.0,0.0,-1.26465426534
1573333116621376066,0,1573333116621376066,odom,vehicle,1.2638459387,-1.40403878276,0.0,-0.0,-0.0,-0.995542386023,0.0943152036034,0.742782140262,0.0,0.0,0.0,0.0,-0.943907287922
1573333116655376066,0,1573333116655376066,odom,vehicle,1.23953235319,-1.40828411614,0.0,-0.0,-0.0,-0.996927575627,0.0783288513502,0.725957459981,0.0,0.0,0.0,0.0,-0.94390953709
1573333116689376066,0,1573333116689376066,odom,vehicle,1.21096312389,-1.41217385004,0.0,-0.0,-0.0,-0.998381065964,0.0568792328114,0.848085186503,0.0,0.0,0.0,0.0,-1.26465426534
1573333116723376066,0,1573333116723376066,odom,vehicle,1.18314096744,-1.41459680661,0.0,-0.0,-0.0,-0.999551286998,0.0299537086424,0.821497314892,0.0,0.0,0.0,0.0,-1.58540124275
1573333116758376066,0,1573333116758376066,odom,vehicle,1.15584887863,-1.41577320006,0.0,-0.0,-0.0,-0.999913947529,0.0131185950954,0.78053298955,0.0,0.0,0.0,0.0,-0.96223868308
1573333116792376066,0,1573333116792376066,odom,vehicle,1.12931318358,-1.41589068066,0.0,-0.0,-0.0,-0.999962227123,-0.00869162399761,0.78053298955,0.0,0.0,0.0,0.0,-1.2829856605
1573333116826376066,0,1573333116826376066,odom,vehicle,1.10137704488,-1.41479518583,0.0,-0.0,-0.0,-0.999534836697,-0.0304977085895,0.822349781166,0.0,0.0,0.0,0.0,-1.2829856605
1573333116860376066,0,1573333116860376066,odom,vehicle,1.07347351882,-1.41247903735,0.0,-0.0,-0.0,-0.998631971559,-0.0522894385222,0.823575805432,0.0,0.0,0.0,0.0,-1.2829856605
1573333116894376066,0,1573333116894376066,odom,vehicle,1.04656704808,-1.40905881077,0.0,-0.0,-0.0,-0.997254073852,-0.0740561421246,0.797799876715,0.0,0.0,0.0,0.0,-1.2829856605
1573333116928376066,0,1573333116928376066,odom,vehicle,1.01989628505,-1.40447898044,0.0,-0.0,-0.0,-0.995401794361,-0.0957876181097,0.795980402295,0.0,0.0,0.0,0.0,-1.2829856605
1573333116962376066,0,1573333116962376066,odom,vehicle,0.992545231409,-1.39854399586,0.0,-0.0,-0.0,-0.993076000718,-0.117473642989,0.823225312858,0.0,0.0,0.0,0.0,-1.28298341133
1573333116996376066,0,1573333116996376066,odom,vehicle,0.965395637727,-1.39140000453,0.0,-0.0,-0.0,-0.990277829058,-0.139103635023,0.825766787023,0.0,0.0,0.0,0.0,-1.28298341133
1573333117030376066,0,1573333117030376066,odom,vehicle,0.939460345157,-1.38335103947,0.0,-0.0,-0.0,-0.987008589638,-0.1606674951,0.798758584023,0.0,0.0,0.0,0.0,-1.2829856605
1573333117064376066,0,1573333117064376066,odom,vehicle,0.913920042558,-1.37434257871,0.0,-0.0,-0.0,-0.984248433322,-0.176790897685,0.796574639439,0.0,0.0,0.0,0.0,-0.96223868308
1573333117099376066,0,1573333117099376066,odom,vehicle,0.888376533745,-1.36420699914,0.0,-0.0,-0.0,-0.980063236121,-0.198685815305,0.785237521098,0.0,0.0,0.0,0.0,-1.27382208541
1573333117133376066,0,1573333117133376066,odom,vehicle,0.863971177235,-1.35325876675,0.0,-0.0,-0.0,-0.975531228314,-0.219860916454,0.786780047169,0.0,0.0,0.0,0.0,-1.27382208541
1573333117167376066,0,1573333117167376066,odom,vehicle,0.83974498612,-1.34110472827,0.0,-0.0,-0.0,-0.970541807084,-0.240932772164,0.797241834684,0.0,0.0,0.0,0.0,-1.27382208541
1573333117201376066,0,1573333117201376066,odom,vehicle,0.816084695998,-1.32809117827,0.0,-0.0,-0.0,-0.966510940689,-0.256625410918,0.794242395643,0.0,0.0,0.0,0.0,-0.953075107989
1573333117235376066,0,1573333117235376066,odom,vehicle,0.792944038434,-1.31419754037,0.0,-0.0,-0.0,-0.960727532688,-0.277493437645,0.793916265458,0.0,0.0,0.0,0.0,-1.27381983624
1573333117270376066,0,1573333117270376066,odom,vehicle,0.770953849065,-1.29947029755,0.0,-0.0,-0.0,-0.952659883441,-0.304038067488,0.756277658464,0.0,0.0,0.0,0.0,-1.58540323856
1573333117304376066,0,1573333117304376066,odom,vehicle,0.748758389656,-1.28296699992,0.0,-0.0,-0.0,-0.94590362236,-0.324447741874,0.813546639073,0.0,0.0,0.0,0.0,-1.26465851031
1573333117338376066,0,1573333117338376066,odom,vehicle,0.726901383571,-1.26540379251,0.0,-0.0,-0.0,-0.940575831445,-0.339583723553,0.824718761356,0.0,0.0,0.0,0.0,-0.943911532899
1573333117372376066,0,1573333117372376066,odom,vehicle,0.70801371691,-1.24884135436,0.0,-0.0,-0.0,-0.931082939747,-0.364807564769,0.738940433431,0.0,0.0,0.0,0.0,-1.58540548773
1573333117406376066,0,1573333117406376066,odom,vehicle,0.69058819251,-1.23200001994,0.0,-0.0,-0.0,-0.923025249716,-0.384739377224,0.712811862493,0.0,0.0,0.0,0.0,-1.26466075948
1573333117440376066,0,1573333117440376066,odom,vehicle,0.671631167892,-1.21245157779,0.0,-0.0,-0.0,-0.918774721199,-0.394782233245,0.800920352424,0.0,0.0,0.0,0.0,-0.641493954831
1573333117474376066,0,1573333117474376066,odom,vehicle,0.651858423165,-1.19091719296,0.0,-0.0,-0.0,-0.912194215903,-0.409758114591,0.859896303575,0.0,0.0,0.0,0.0,-0.962240932247
1573333117508376066,0,1573333117508376066,odom,vehicle,0.635440016674,-1.17160586858,0.0,-0.0,-0.0,-0.903040785555,-0.429554815623,0.745567772665,0.0,0.0,0.0,0.0,-1.2829856605
1573333117542376066,0,1573333117542376066,odom,vehicle,0.618966291131,-1.15089299619,0.0,-0.0,-0.0,-0.898302742854,-0.439377038751,0.778405445174,0.0,0.0,0.0,0.0,-0.641491705664
1573333117576376066,0,1573333117576376066,odom,vehicle,0.602269790605,-1.12893350911,0.0,-0.0,-0.0,-0.893457869395,-0.449147008913,0.811373497416,0.0,0.0,0.0,0.0,-0.641491705664
1573333117611376066,0,1573333117611376066,odom,vehicle,0.586512180468,-1.10697734232,0.0,-0.0,-0.0,-0.885842705927,-0.463985668267,0.772189933608,0.0,0.0,0.0,0.0,-0.953072985501
1573333117645376066,0,1573333117645376066,odom,vehicle,0.570776009946,-1.08345538453,0.0,-0.0,-0.0,-0.878209175693,-0.478276743872,0.832401485752,0.0,0.0,0.0,0.0,-0.953072985501
1573333117679376066,0,1573333117679376066,odom,vehicle,0.55649431345,-1.06080998856,0.0,-0.0,-0.0,-0.873017236425,-0.487689352871,0.787445691058,0.0,0.0,0.0,0.0,-0.632328257253
1573333117713376066,0,1573333117713376066,odom,vehicle,0.543300974572,-1.03858460333,0.0,-0.0,-0.0,-0.865001335288,-0.501769558612,0.760220753124,0.0,0.0,0.0,0.0,-0.953075234668
1573333117747376066,0,1573333117747376066,odom,vehicle,0.529891629341,-1.01423075993,0.0,-0.0,-0.0,-0.856758365363,-0.515718046398,0.817727200894,0.0,0.0,0.0,0.0,-0.953075234668
1573333117782376066,0,1573333117782376066,odom,vehicle,0.517558962512,-0.989977844033,0.0,-0.0,-0.0,-0.848038010756,-0.529935403906,0.777417818745,0.0,0.0,0.0,0.0,-0.953075234668
1573333117816376066,0,1573333117816376066,odom,vehicle,0.506666304531,-0.967019259872,0.0,-0.0,-0.0,-0.842292554502,-0.53902064212,0.747414517464,0.0,0.0,0.0,0.0,-0.632328257253
1573333117850376066,0,1573333117850376066,odom,vehicle,0.495479399446,-0.941700267833,0.0,-0.0,-0.0,-0.833448998908,-0.552596386361,0.814157873294,0.0,0.0,0.0,0.0,-0.953072985501
1573333117884376066,0,1573333117884376066,odom,vehicle,0.48534874525,-0.916991147619,0.0,-0.0,-0.0,-0.82746081623,-0.561523461312,0.785465726497,0.0,0.0,0.0,0.0,-0.632326008085
1573333117918376066,0,1573333117918376066,odom,vehicle,0.47622196012,-0.89290044615,0.0,-0.0,-0.0,-0.818254690843,-0.574855860989,0.757729094227,0.0,0.0,0.0,0.0,-0.953072985501
1573333117952376066,0,1573333117952376066,odom,vehicle,0.467111956283,-0.866734327324,0.0,-0.0,-0.0,-0.811937120179,-0.58374490394,0.814913558221,0.0,0.0,0.0,0.0,-0.641491705664
1573333117986376066,0,1573333117986376066,odom,vehicle,0.458563656075,-0.840341417538,0.0,-0.0,-0.0,-0.805523033759,-0.592564462387,0.815980772529,0.0,0.0,0.0,0.0,-0.641491705664
1573333118020376066,0,1573333118020376066,odom,vehicle,0.450570034669,-0.81369182115,0.0,-0.0,-0.0,-0.799013127427,-0.601313580588,0.818330917245,0.0,0.0,0.0,0.0,-0.641493954831
1573333118054376066,0,1573333118054376066,odom,vehicle,0.443145134141,-0.786822176657,0.0,-0.0,-0.0,-0.792408151053,-0.609991247597,0.819913550209,0.0,0.0,0.0,0.0,-0.641493954831
1573333118088376066,0,1573333118088376066,odom,vehicle,0.436512622339,-0.760605796653,0.0,-0.0,-0.0,-0.785708982771,-0.618596309715,0.795380928827,0.0,0.0,0.0,0.0,-0.641493954831
1573333118123376066,0,1573333118123376066,odom,vehicle,0.430565338214,-0.734699649881,0.0,-0.0,-0.0,-0.778715150498,-0.627377648936,0.759443858746,0.0,0.0,0.0,0.0,-0.641493954831
1573333118157376066,0,1573333118157376066,odom,vehicle,0.425333621006,-0.70935051992,0.0,-0.0,-0.0,-0.771827195035,-0.635832352909,0.761292705708,0.0,0.0,0.0,0.0,-0.641493954831
1573333118191376066,0,1573333118191376066,odom,vehicle,0.420065861394,-0.681535803352,0.0,-0.0,-0.0,-0.768348744322,-0.640031411025,0.832628029819,0.0,0.0,0.0,0.0,-0.320746977416
1573333118225376066,0,1573333118225376066,odom,vehicle,0.415276323312,-0.654645474033,0.0,-0.0,-0.0,-0.764847424656,-0.644211469159,0.80333966215,0.0,0.0,0.0,0.0,-0.320746977416
1573333118259376066,0,1573333118259376066,odom,vehicle,0.411149512518,-0.630721027436,0.0,-0.0,-0.0,-0.764847424656,-0.644211469159,0.714053496605,0.0,0.0,0.0,0.0,-5.55111512313e-16
1573333118294376066,0,1573333118294376066,odom,vehicle,0.406765588054,-0.60445169881,0.0,-0.0,-0.0,-0.761323389242,-0.648372344407,0.760933889647,0.0,0.0,0.0,0.0,-0.311581279837
1573333118328376066,0,1573333118328376066,odom,vehicle,0.402323679537,-0.576938103885,0.0,-0.0,-0.0,-0.761424407104,-0.648253709798,0.819703361931,0.0,0.0,0.0,0.0,0.00916569757875
1573333118362376066,0,1573333118362376066,odom,vehicle,0.398131213181,-0.551020910974,0.0,-0.0,-0.0,-0.761525406479,-0.648135059449,0.772181175858,0.0,0.0,0.0,0.0,0.00916569757875
1573333118396376066,0,1573333118396376066,odom,vehicle,0.39422619761,-0.526067564913,0.0,-0.0,-0.0,-0.758081653594,-0.652159648003,0.742854456616,0.0,0.0,0.0,0.0,-0.31157903067
1573333118430376066,0,1573333118430376066,odom,vehicle,0.390291907838,-0.499056933496,0.0,-0.0,-0.0,-0.754616655776,-0.656165911051,0.802819062236,0.0,0.0,0.0,0.0,-0.31157903067
1573333118464376066,0,1573333118464376066,odom,vehicle,0.386638918051,-0.473011037994,0.0,-0.0,-0.0,-0.754616680865,-0.656165882197,0.773555281662,0.0,0.0,0.0,0.0,2.24916713298e-06
1573333118498376066,0,1573333118498376066,odom,vehicle,0.383124316824,-0.447951862858,0.0,-0.0,-0.0,-0.754616680865,-0.656165882197,0.744244767966,0.0,0.0,0.0,0.0,-5.77316057508e-16
1573333118532376066,0,1573333118532376066,odom,vehicle,0.379610262328,-0.421863143804,0.0,-0.0,-0.0,-0.751027614205,-0.660270794978,0.774250376488,0.0,0.0,0.0,0.0,-0.320746977416
1573333118566376066,0,1573333118566376066,odom,vehicle,0.376108558803,-0.394749407075,0.0,-0.0,-0.0,-0.751027588959,-0.660270823694,0.804087830801,0.0,0.0,0.0,0.0,-2.24916713409e-06
1573333118600376066,0,1573333118600376066,odom,vehicle,0.372736675203,-0.368640852033,0.0,-0.0,-0.0,-0.751027563713,-0.66027085241,0.774272619794,0.0,0.0,0.0,0.0,-2.24916713409e-06
1573333118635376066,0,1573333118635376066,odom,vehicle,0.369578704861,-0.344188616232,0.0,-0.0,-0.0,-0.751027537725,-0.660270881971,0.704440674175,0.0,0.0,0.0,0.0,-2.24916713409e-06
1573333118669376066,0,1573333118669376066,odom,vehicle,0.36639336849,-0.318419093116,0.0,-0.0,-0.0,-0.747416115855,-0.664356191933,0.763695652215,0.0,0.0,0.0,0.0,-0.320746977416
1573333118703376066,0,1573333118703376066,odom,vehicle,0.363075601796,-0.290320595732,0.0,-0.0,-0.0,-0.747416115855,-0.664356191933,0.832169436949,0.0,0.0,0.0,0.0,-5.55111512313e-16
1573333118737376066,0,1573333118737376066,odom,vehicle,0.359998339795,-0.264258956603,0.0,-0.0,-0.0,-0.747416115855,-0.664356191933,0.771845528409,0.0,0.0,0.0,0.0,-5.55111512313e-16
1573333118771376066,0,1573333118771376066,odom,vehicle,0.357157119631,-0.240196379362,0.0,-0.0,-0.0,-0.747416115855,-0.664356191933,0.712636005619,0.0,0.0,0.0,0.0,-5.55111512313e-16
1573333118806376066,0,1573333118806376066,odom,vehicle,0.354293476147,-0.214753327069,0.0,-0.0,-0.0,-0.743782497274,-0.668421720734,0.73154104989,0.0,0.0,0.0,0.0,-0.311583402325
1573333118840376066,0,1573333118840376066,odom,vehicle,0.351674470749,-0.188995497942,0.0,-0.0,-0.0,-0.740231488057,-0.672352098301,0.761489262935,0.0,0.0,0.0,0.0,-0.311583402325
1573333118874376066,0,1573333118874376066,odom,vehicle,0.349385079989,-0.163833425432,0.0,-0.0,-0.0,-0.736659734888,-0.676263583963,0.743123133135,0.0,0.0,0.0,0.0,-0.311583402325
1573333118908376066,0,1573333118908376066,odom,vehicle,0.347361836837,-0.138641811932,0.0,-0.0,-0.0,-0.733067313154,-0.680156095603,0.743320828272,0.0,0.0,0.0,0.0,-0.311583402325
1573333118942376066,0,1573333118942376066,odom,vehicle,0.345605022659,-0.113422201435,0.0,-0.0,-0.0,-0.729454298239,-0.684029551102,0.743550804433,0.0,0.0,0.0,0.0,-0.311583402325
1573333118976376066,0,1573333118976376066,odom,vehicle,0.343915577702,-0.0871640816421,0.0,-0.0,-0.0,-0.729454298239,-0.684029551102,0.773896324207,0.0,0.0,0.0,0.0,-5.55111512313e-16
1573333119010376066,0,1573333119010376066,odom,vehicle,0.342160397846,-0.0598842802133,0.0,-0.0,-0.0,-0.729454298239,-0.684029551102,0.804007987526,0.0,0.0,0.0,0.0,-5.55111512313e-16
1573333119044376066,0,1573333119044376066,odom,vehicle,0.340534918234,-0.0346203388179,0.0,-0.0,-0.0,-0.729454298239,-0.684029551102,0.744590032849,0.0,0.0,0.0,0.0,-5.55111512313e-16
1573333119078376066,0,1573333119078376066,odom,vehicle,0.338974353761,-0.0103653379509,0.0,-0.0,-0.0,-0.729454298239,-0.684029551102,0.714859105019,0.0,0.0,0.0,0.0,-5.55111512313e-16
1573333119104326982,0,1573333119104326982,odom,vehicle,0.33753348934,0.0120292304111,0.0,-0.0,-0.0,-0.729454298239,-0.684029551102,0.864743247505,0.0,0.0,0.0,0.0,-5.55111512313e-16
1573333119139326982,0,1573333119139326982,odom,vehicle,0.335483080955,0.0438976075226,0.0,-0.0,-0.0,-0.729454298239,-0.684029551102,0.912405491924,0.0,0.0,0.0,0.0,-5.55111512313e-16
1573333119173326982,0,1573333119173326982,odom,vehicle,0.333840543652,0.0718003520777,0.0,-0.0,-0.0,-0.725713674561,-0.68799684778,0.822095656794,0.0,0.0,0.0,0.0,-0.320746977416
1573333119207326982,0,1573333119207326982,odom,vehicle,0.332531491434,0.099112137244,0.0,-0.0,-0.0,-0.721951474176,-0.691943689136,0.8042158378,0.0,0.0,0.0,0.0,-0.320746977416
1573333119241326982,0,1573333119241326982,odom,vehicle,0.331595272913,0.124412089356,0.0,-0.0,-0.0,-0.718167782333,-0.695869985284,0.74462576557,0.0,0.0,0.0,0.0,-0.320746977416
1573333119275326982,0,1573333119275326982,odom,vehicle,0.330961423553,0.148708318573,0.0,-0.0,-0.0,-0.714362764592,-0.699775564424,0.714843340146,0.0,0.0,0.0,0.0,-0.320746977416
1573333119310326982,0,1573333119310326982,odom,vehicle,0.330545455973,0.176406575604,0.0,-0.0,-0.0,-0.710423631296,-0.703774299116,0.79147022431,0.0,0.0,0.0,0.0,-0.320746977416
1573333119344326982,0,1573333119344326982,odom,vehicle,0.330282875306,0.20432914105,0.0,-0.0,-0.0,-0.710423631296,-0.703774299116,0.821290172073,0.0,0.0,0.0,0.0,-5.55111512313e-16
1573333119378326982,0,1573333119378326982,odom,vehicle,0.330178835037,0.230662148466,0.0,-0.0,-0.0,-0.706575629153,-0.707637534538,0.774511925843,0.0,0.0,0.0,0.0,-0.320746977416
1573333119412326982,0,1573333119412326982,odom,vehicle,0.330361960554,0.256993725972,0.0,-0.0,-0.0,-0.702706592104,-0.711479757557,0.774477122329,0.0,0.0,0.0,0.0,-0.320746977416
1573333119446326982,0,1573333119446326982,odom,vehicle,0.330701092961,0.28432581981,0.0,-0.0,-0.0,-0.702706592104,-0.711479757557,0.803948885615,0.0,0.0,0.0,0.0,-5.55111512313e-16
1573333119480326982,0,1573333119480326982,odom,vehicle,0.331206936792,0.312645697865,0.0,-0.0,-0.0,-0.698816689446,-0.71530080005,0.833076541967,0.0,0.0,0.0,0.0,-0.320746977416
1573333119514326982,0,1573333119514326982,odom,vehicle,0.331866720426,0.340942137055,0.0,-0.0,-0.0,-0.698816662095,-0.71530082677,0.832470540946,0.0,0.0,0.0,0.0,-2.24916713409e-06
1573333119548326982,0,1573333119548326982,odom,vehicle,0.332217790335,0.369236062338,0.0,-0.0,-0.0,-0.706575547981,-0.707637615588,0.832256787284,0.0,0.0,0.0,0.0,0.641491705664
1573333119582326982,0,1573333119582326982,odom,vehicle,0.332106021613,0.39752708878,0.0,-0.0,-0.0,-0.710423523658,-0.703774407771,0.832101590307,0.0,0.0,0.0,0.0,0.320744728249
1573333119616326982,0,1573333119616326982,odom,vehicle,0.331686259341,0.425780504593,0.0,-0.0,-0.0,-0.714250377527,-0.699890275831,0.831074773701,0.0,0.0,0.0,0.0,0.320742479081
1573333119651326982,0,1573333119651326982,odom,vehicle,0.330940058006,0.454383913618,0.0,-0.0,-0.0,-0.71827914972,-0.69575503094,0.817526413124,0.0,0.0,0.0,0.0,0.329906054172
1573333119685326982,0,1573333119685326982,odom,vehicle,0.329863633055,0.483102956025,0.0,-0.0,-0.0,-0.722169925462,-0.691715692144,0.84527132471,0.0,0.0,0.0,0.0,0.329906054172
1573333119719326982,0,1573333119719326982,odom,vehicle,0.32849540197,0.511187093545,0.0,-0.0,-0.0,-0.726037958744,-0.687654624403,0.82699002475,0.0,0.0,0.0,0.0,0.329906054172
1573333119753326982,0,1573333119753326982,odom,vehicle,0.326594673734,0.540231048492,0.0,-0.0,-0.0,-0.733599589374,-0.679581961554,0.856080747846,0.0,0.0,0.0,0.0,0.650653031588
1573333119787326982,0,1573333119787326982,odom,vehicle,0.323966860646,0.570196082541,0.0,-0.0,-0.0,-0.741071519003,-0.671426096993,0.884720912105,0.0,0.0,0.0,0.0,0.650653031588
1573333119822326982,0,1573333119822326982,odom,vehicle,0.320573642087,0.599476474745,0.0,-0.0,-0.0,-0.752272107386,-0.6588525453,0.842224946226,0.0,0.0,0.0,0.0,0.962236433913
1573333119856326982,0,1573333119856326982,odom,vehicle,0.316193109565,0.628743937346,0.0,-0.0,-0.0,-0.762948552637,-0.646459206778,0.870430925535,0.0,0.0,0.0,0.0,0.962236433913
1573333119890326982,0,1573333119890326982,odom,vehicle,0.310774151194,0.659244454506,0.0,-0.0,-0.0,-0.769952874748,-0.638100752756,0.911142682632,0.0,0.0,0.0,0.0,0.641489456497
1573333119924326982,0,1573333119924326982,odom,vehicle,0.304500974542,0.690569938345,0.0,-0.0,-0.0,-0.776865630766,-0.629666413059,0.939651316518,0.0,0.0,0.0,0.0,0.641489456497
1573333119958326982,0,1573333119958326982,odom,vehicle,0.297771444386,0.720740922297,0.0,-0.0,-0.0,-0.783686046097,-0.621157130807,0.909201250268,0.0,0.0,0.0,0.0,0.641489456497
1573333119992326982,0,1573333119992326982,odom,vehicle,0.290154984906,0.751694871583,0.0,-0.0,-0.0,-0.790413213977,-0.612574037298,0.937586214402,0.0,0.0,0.0,0.0,0.641489456497
1573333120026326982,0,1573333120026326982,odom,vehicle,0.282133549917,0.781479187304,0.0,-0.0,-0.0,-0.797046405624,-0.603918063385,0.907242620925,0.0,0.0,0.0,0.0,0.641491705664
1573333120060326982,0,1573333120060326982,odom,vehicle,0.273758759361,0.810076524605,0.0,-0.0,-0.0,-0.80358485395,-0.595190206995,0.876436907068,0.0,0.0,0.0,0.0,0.641491705664
1573333120094326982,0,1573333120094326982,odom,vehicle,0.26388550188,0.841252991341,0.0,-0.0,-0.0,-0.810027689672,-0.586391628492,0.961859469862,0.0,0.0,0.0,0.0,0.641491705664
1573333120128326982,0,1573333120128326982,odom,vehicle,0.253190586762,0.872077985706,0.0,-0.0,-0.0,-0.819511116115,-0.5730632867,0.959680897331,0.0,0.0,0.0,0.0,0.962240932247
1573333120163326982,0,1573333120163326982,odom,vehicle,0.241338608462,0.902894611953,0.0,-0.0,-0.0,-0.82904443259,-0.559182732917,0.943390126935,0.0,0.0,0.0,0.0,0.962240932247
1573333120197326982,0,1573333120197326982,odom,vehicle,0.228479257958,0.933279755583,0.0,-0.0,-0.0,-0.838080249959,-0.545546968307,0.970464378995,0.0,0.0,0.0,0.0,0.962240932247
1573333120231326982,0,1573333120231326982,odom,vehicle,0.214763594854,0.96252557571,0.0,-0.0,-0.0,-0.849778818765,-0.527139411521,0.950138018482,0.0,0.0,0.0,0.0,1.2829856605
1573333120265326982,0,1573333120265326982,odom,vehicle,0.200302435502,0.990157964087,0.0,-0.0,-0.0,-0.861073074556,-0.508481229028,0.917360839609,0.0,0.0,0.0,0.0,1.2829856605
1573333120299326982,0,1573333120299326982,odom,vehicle,0.18382934387,1.01890786131,0.0,-0.0,-0.0,-0.869275246793,-0.494328378017,0.974600639786,0.0,0.0,0.0,0.0,0.96223868308
1573333120334326982,0,1573333120334326982,odom,vehicle,0.166078939453,1.0472854672,0.0,-0.0,-0.0,-0.88007787983,-0.474829364546,0.95641570514,0.0,0.0,0.0,0.0,1.27381996292
1573333120368326982,0,1573333120368326982,odom,vehicle,0.148428663639,1.0732260423,0.0,-0.0,-0.0,-0.887655312096,-0.460508465621,0.922862469722,0.0,0.0,0.0,0.0,0.953072985501
1573333120402326982,0,1573333120402326982,odom,vehicle,0.129531723372,1.09885639055,0.0,-0.0,-0.0,-0.897418724427,-0.441179819403,0.936642653629,0.0,0.0,0.0,0.0,1.27381771375
1573333120436326982,0,1573333120436326982,odom,vehicle,0.109552261315,1.12363280833,0.0,-0.0,-0.0,-0.906761254438,-0.42164443249,0.93620604905,0.0,0.0,0.0,0.0,1.27381771375
1573333120470326982,0,1573333120470326982,odom,vehicle,0.0891880075783,1.14676093708,0.0,-0.0,-0.0,-0.915678591213,-0.401911330512,0.906419862658,0.0,0.0,0.0,0.0,1.27381771375
1573333120504326982,0,1573333120504326982,odom,vehicle,0.0679587262881,1.16909926218,0.0,-0.0,-0.0,-0.922130292708,-0.38687946866,0.906416486834,0.0,0.0,0.0,0.0,0.962236433913
1573333120538326982,0,1573333120538326982,odom,vehicle,0.0443969385816,1.19181994708,0.0,-0.0,-0.0,-0.932333933315,-0.361598446884,0.962829012743,0.0,0.0,0.0,0.0,1.60373038874
1573333120572326982,0,1573333120572326982,odom,vehicle,0.0218847279915,1.21149123071,0.0,-0.0,-0.0,-0.93999828805,-0.341179158893,0.879360107698,0.0,0.0,0.0,0.0,1.28298790966
1573333120606326982,0,1573333120606326982,odom,vehicle,-0.00146396293546,1.23016215269,0.0,-0.0,-0.0,-0.947215544357,-0.320597430634,0.879356731874,0.0,0.0,0.0,0.0,1.28298790966
1573333120640326982,0,1573333120640326982,odom,vehicle,-0.0272552647313,1.24878809799,0.0,-0.0,-0.0,-0.955603038557,-0.294657144322,0.935817769403,0.0,0.0,0.0,0.0,1.60373488708
1573333120675326982,0,1573333120675326982,odom,vehicle,-0.0536696982367,1.26552115951,0.0,-0.0,-0.0,-0.964940798885,-0.262467625903,0.893550164859,0.0,0.0,0.0,0.0,1.91531616692
1573333120709326982,0,1573333120709326982,odom,vehicle,-0.078577921783,1.27925984684,0.0,-0.0,-0.0,-0.971700289747,-0.236217160482,0.836749545991,0.0,0.0,0.0,0.0,1.5945691895
1573333120743326982,0,1573333120743326982,odom,vehicle,-0.104593280774,1.29199677307,0.0,-0.0,-0.0,-0.97658733159,-0.215121323391,0.852009283019,0.0,0.0,0.0,0.0,1.27382221208
1573333120777326982,0,1573333120777326982,odom,vehicle,-0.131208080831,1.30345458323,0.0,-0.0,-0.0,-0.982059284244,-0.188572432316,0.852346073864,0.0,0.0,0.0,0.0,1.59456694033
1573333120811326982,0,1573333120811326982,odom,vehicle,-0.15823412438,1.31355825832,0.0,-0.0,-0.0,-0.98591222848,-0.167263497912,0.848683768125,0.0,0.0,0.0,0.0,1.27381996292
1573333120846326982,0,1573333120846326982,odom,vehicle,-0.186969158584,1.32288389845,0.0,-0.0,-0.0,-0.989395587481,-0.14524590002,0.863224363637,0.0,0.0,0.0,0.0,1.27381996292
